[{"key":"AU-Bedford Park","latitude":"-35.03333","longitude":"138.56667","name":"Bedford Park"},{"key":"AU-Campbelltown","latitude":"-34.88333","longitude":"138.66667","name":"Campbelltown"},{"key":"AU-Canberra","latitude":"-35.28346","longitude":"149.12807","name":"Canberra"},{"key":"AU-Charlestown","latitude":"-32.95","longitude":"151.66667","name":"Charlestown"},{"key":"AU-Chester Hill","latitude":"-10.58257","longitude":"113.65713","name":"Chester Hill"},{"key":"AU-Concord","latitude":"-33.84722","longitude":"151.10381","name":"Concord"},{"key":"AU-Cooroy Mountain","latitude":"-10.58257","longitude":"113.65713","name":"Cooroy Mountain"},{"key":"AU-Croydon","latitude":"-37.8","longitude":"145.28333","name":"Croydon"},{"key":"AU-Dianella","latitude":"-31.88822","longitude":"115.87186","name":"Dianella"},{"key":"AU-Drummoyne","latitude":"-33.85237","longitude":"151.15491","name":"Drummoyne"},{"key":"AU-Felixstow","latitude":"-10.58257","longitude":"113.65713","name":"Felixstow"},{"key":"AU-Glenroy","latitude":"-37.7","longitude":"144.93333","name":"Glenroy"},{"key":"AU-Glenwood","latitude":"-10.58257","longitude":"113.65713","name":"Glenwood"},{"key":"AU-Gotham","latitude":"-10.58257","longitude":"113.65713","name":"Gotham"},{"key":"AU-Greenwich","latitude":"-33.83954","longitude":"151.183","name":"Greenwich"},{"key":"AU-Hamersley","latitude":"-10.58257","longitude":"113.65713","name":"Hamersley"},{"key":"AU-Hawthorn","latitude":"-37.81992","longitude":"145.0358","name":"Hawthorn"},{"key":"AU-Hornsby","latitude":"-33.70244","longitude":"151.09931","name":"Hornsby"},{"key":"AU-Kenwick","latitude":"-32.03333","longitude":"115.96667","name":"Kenwick"},{"key":"AU-Leederville","latitude":"-31.93628","longitude":"115.8419","name":"Leederville"},{"key":"AU-Mandurah","latitude":"-32.5269","longitude":"115.7217","name":"Mandurah"},{"key":"AU-Marrickville","latitude":"-33.90318","longitude":"151.15176","name":"Marrickville"},{"key":"AU-Maylands","latitude":"-31.93097","longitude":"115.89486","name":"Maylands"},{"key":"AU-Melbourne","latitude":"-37.814","longitude":"144.96332","name":"Melbourne"},{"key":"AU-Morwell","latitude":"-38.23476","longitude":"146.39499","name":"Morwell"},{"key":"AU-Mulgrave","latitude":"-37.91667","longitude":"145.2","name":"Mulgrave"},{"key":"AU-Nerang","latitude":"-27.98941","longitude":"153.33633","name":"Nerang"},{"key":"AU-Newcastle","latitude":"-32.92715","longitude":"151.77647","name":"Newcastle"},{"key":"AU-Penrith","latitude":"-33.75","longitude":"150.7","name":"Penrith"},{"key":"AU-Perth","latitude":"-31.95224","longitude":"115.8614","name":"Perth"},{"key":"AU-Richmond","latitude":"-37.81819","longitude":"145.00176","name":"Richmond"},{"key":"AU-Roseworthy","latitude":"-34.53397","longitude":"138.75023","name":"Roseworthy"},{"key":"AU-Ryde","latitude":"-10.58257","longitude":"113.65713","name":"Ryde"},{"key":"AU-Southbank","latitude":"-37.8228","longitude":"144.96434","name":"Southbank"},{"key":"AU-Sunnybank","latitude":"-27.58333","longitude":"153.05","name":"Sunnybank"},{"key":"AU-Surry Hills","latitude":"-10.58257","longitude":"113.65713","name":"Surry Hills"},{"key":"AU-Sydney","latitude":"-33.86785","longitude":"151.20732","name":"Sydney"},{"key":"AU-Walkerville South","latitude":"-10.58257","longitude":"113.65713","name":"Walkerville South"},{"key":"AU-Wembley","latitude":"-31.93333","longitude":"115.8","name":"Wembley"},{"key":"AU-Wetherill Park","latitude":"-10.58257","longitude":"113.65713","name":"Wetherill Park"},{"key":"AU-Willetton","latitude":"-32.05251","longitude":"115.88782","name":"Willetton"},{"key":"AU-Winston Hills","latitude":"-10.58257","longitude":"113.65713","name":"Winston Hills"},{"key":"AU-Wollstonecraft","latitude":"-33.8328","longitude":"151.18981","name":"Wollstonecraft"},{"key":"AU-Yagoona","latitude":"-33.9049","longitude":"151.01996","name":"Yagoona"},{"key":"AT-Salzburg","latitude":"47.79941","longitude":"13.04399","name":"Salzburg"},{"key":"BB-Bridgetown","latitude":"13.10732","longitude":"-59.62021","name":"Bridgetown"},{"key":"BB-Hastings","latitude":"13.07067","longitude":"-59.44861","name":"Hastings"},{"key":"BB-Warrens","latitude":"13.07067","longitude":"-59.44861","name":"Warrens"},{"key":"BE-Aalst","latitude":"50.93604","longitude":"4.0355","name":"Aalst"},{"key":"BE-Antwerp","latitude":"49.53771","longitude":"2.59368","name":"Antwerp"},{"key":"BE-Baudour","latitude":"49.53771","longitude":"2.59368","name":"Baudour"},{"key":"BE-Blanden","latitude":"49.53771","longitude":"2.59368","name":"Blanden"},{"key":"BE-Blankenberge","latitude":"51.31306","longitude":"3.13227","name":"Blankenberge"},{"key":"BE-Bois-d'Haine","latitude":"49.53771","longitude":"2.59368","name":"Bois-d'Haine"},{"key":"BE-Brecht","latitude":"51.35024","longitude":"4.63829","name":"Brecht"},{"key":"BE-Chastre","latitude":"49.53771","longitude":"2.59368","name":"Chastre"},{"key":"BE-Comines","latitude":"49.53771","longitude":"2.59368","name":"Comines"},{"key":"BE-Dendermonde","latitude":"51.02869","longitude":"4.10106","name":"Dendermonde"},{"key":"BE-Dilbeek","latitude":"50.84799","longitude":"4.25972","name":"Dilbeek"},{"key":"BE-Evergem","latitude":"51.10529","longitude":"3.704","name":"Evergem"},{"key":"BE-Gavere","latitude":"50.92917","longitude":"3.66184","name":"Gavere"},{"key":"BE-Gesves","latitude":"50.40146","longitude":"5.07457","name":"Gesves"},{"key":"BE-Ghent","latitude":"49.53771","longitude":"2.59368","name":"Ghent"},{"key":"BE-Gotham","latitude":"49.53771","longitude":"2.59368","name":"Gotham"},{"key":"BE-Grimbergen","latitude":"50.93409","longitude":"4.37213","name":"Grimbergen"},{"key":"BE-Hoboken","latitude":"51.17611","longitude":"4.34844","name":"Hoboken"},{"key":"BE-Hofstade","latitude":"49.53771","longitude":"2.59368","name":"Hofstade"},{"key":"BE-Liedekerke","latitude":"50.86892","longitude":"4.08743","name":"Liedekerke"},{"key":"BE-Lissewege","latitude":"49.53771","longitude":"2.59368","name":"Lissewege"},{"key":"BE-Louvain-la-Neuve","latitude":"50.66829","longitude":"4.61443","name":"Louvain-la-Neuve"},{"key":"BE-Nazareth","latitude":"50.95686","longitude":"3.59425","name":"Nazareth"},{"key":"BE-Neigem","latitude":"49.53771","longitude":"2.59368","name":"Neigem"},{"key":"BE-Nivelles","latitude":"50.59833","longitude":"4.32848","name":"Nivelles"},{"key":"BE-Oostrozebeke","latitude":"50.92093","longitude":"3.33799","name":"Oostrozebeke"},{"key":"BE-Ophasselt","latitude":"49.53771","longitude":"2.59368","name":"Ophasselt"},{"key":"BE-Ostend","latitude":"51.21551","longitude":"2.927","name":"Ostend"},{"key":"BE-Turnhout","latitude":"51.32254","longitude":"4.94471","name":"Turnhout"},{"key":"BE-Vissenaken","latitude":"49.53771","longitude":"2.59368","name":"Vissenaken"},{"key":"BE-Waregem","latitude":"50.88898","longitude":"3.42756","name":"Waregem"},{"key":"BE-Zaventem","latitude":"50.88365","longitude":"4.47298","name":"Zaventem"},{"key":"BE-Zichem","latitude":"49.53771","longitude":"2.59368","name":"Zichem"},{"key":"BR-Niterói","latitude":"-22.88333","longitude":"-43.10361","name":"Niterói"},{"key":"BR-Rio de Janeiro","latitude":"-22.90642","longitude":"-43.18223","name":"Rio de Janeiro"},{"key":"KH-Gotham","latitude":"10.48291","longitude":"102.37574","name":"Gotham"},{"key":"CA-Brampton","latitude":"43.68341","longitude":"-79.76633","name":"Brampton"},{"key":"CA-Burlington","latitude":"43.38621","longitude":"-79.83713","name":"Burlington"},{"key":"CA-Edmonton","latitude":"53.55014","longitude":"-113.46871","name":"Edmonton"},{"key":"CA-Etobicoke","latitude":"43.65421","longitude":"-79.56711","name":"Etobicoke"},{"key":"CA-Evansburg","latitude":"42.11679","longitude":"-100.05023","name":"Evansburg"},{"key":"CA-Gotham","latitude":"42.11679","longitude":"-100.05023","name":"Gotham"},{"key":"CA-Hamilton","latitude":"43.25011","longitude":"-79.84963","name":"Hamilton"},{"key":"CA-Kemptville","latitude":"42.11679","longitude":"-100.05023","name":"Kemptville"},{"key":"CA-London","latitude":"42.98339","longitude":"-81.23304","name":"London"},{"key":"CA-Maple Ridge","latitude":"53.50172","longitude":"-113.36274","name":"Maple Ridge"},{"key":"CA-Ottawa","latitude":"45.41117","longitude":"-75.69812","name":"Ottawa"},{"key":"CA-Port Perry","latitude":"42.11679","longitude":"-100.05023","name":"Port Perry"},{"key":"CA-Surrey","latitude":"49.10635","longitude":"-122.82509","name":"Surrey"},{"key":"CA-Thunder Bay","latitude":"48.38202","longitude":"-89.25018","name":"Thunder Bay"},{"key":"CA-Toronto","latitude":"43.70011","longitude":"-79.4163","name":"Toronto"},{"key":"CA-Winnipeg","latitude":"49.8844","longitude":"-97.14704","name":"Winnipeg"},{"key":"CA-Yellowknife","latitude":"62.45411","longitude":"-114.37248","name":"Yellowknife"},{"key":"CL-Santiago","latitude":"-33.45694","longitude":"-70.64827","name":"Santiago"},{"key":"CO-Bogotá","latitude":"4.60971","longitude":"-74.08175","name":"Bogotá"},{"key":"CR-San José","latitude":"10.95173","longitude":"-85.1361","name":"San José"},{"key":"CW-Willemstad","latitude":"12.1084","longitude":"-68.93354","name":"Willemstad"},{"key":"CZ-Gotham","latitude":"48.61598","longitude":"12.17577","name":"Gotham"},{"key":"CZ-Opava","latitude":"49.93866","longitude":"17.90257","name":"Opava"},{"key":"CZ-Prague","latitude":"50.08804","longitude":"14.42076","name":"Prague"},{"key":"EG-Cairo","latitude":"30.06263","longitude":"31.24967","name":"Cairo"},{"key":"EG-Gotham","latitude":"22.3457","longitude":"25.51965","name":"Gotham"},{"key":"EE-Gotham","latitude":"57.72778","longitude":"22.24646","name":"Gotham"},{"key":"EE-Loksa","latitude":"59.57639","longitude":"25.72139","name":"Loksa"},{"key":"FI-Gotham","latitude":"60.16952","longitude":"24.93545","name":"Gotham"},{"key":"FI-Helsinki","latitude":"60.16952","longitude":"24.93545","name":"Helsinki"},{"key":"FI-Jorvas","latitude":"60.16952","longitude":"24.93545","name":"Jorvas"},{"key":"FI-Kemi","latitude":"65.73641","longitude":"24.56371","name":"Kemi"},{"key":"FI-Vaasa","latitude":"63.096","longitude":"21.61577","name":"Vaasa"},{"key":"FR-Gotham","latitude":"48.85341","longitude":"2.3488","name":"Gotham"},{"key":"DE-Frankfurt am Main","latitude":"50.11552","longitude":"8.68417","name":"Frankfurt am Main"},{"key":"DE-Gelsenkirchen","latitude":"51.50508","longitude":"7.09654","name":"Gelsenkirchen"},{"key":"DE-Gotham","latitude":"52.52437","longitude":"13.41053","name":"Gotham"},{"key":"DE-Stuttgart","latitude":"48.78232","longitude":"9.17702","name":"Stuttgart"},{"key":"JO-Gotham","latitude":"29.40842","longitude":"34.97918","name":"Gotham"},{"key":"HK-Central District","latitude":"22.20453","longitude":"113.86309","name":"Central District"},{"key":"HK-North Point","latitude":"22.20453","longitude":"113.86309","name":"North Point"},{"key":"IN-Bengaluru","latitude":"12.97194","longitude":"77.59369","name":"Bengaluru"},{"key":"IN-Chennai","latitude":"13.08784","longitude":"80.27847","name":"Chennai"},{"key":"IN-Delhi","latitude":"28.65195","longitude":"77.23149","name":"Delhi"},{"key":"IN-Gotham","latitude":"10.01115","longitude":"68.82655","name":"Gotham"},{"key":"IN-Gurgaon","latitude":"28.4601","longitude":"77.02635","name":"Gurgaon"},{"key":"IN-Jalalpur","latitude":"10.01115","longitude":"68.82655","name":"Jalalpur"},{"key":"IN-Kolkata","latitude":"22.56263","longitude":"88.36304","name":"Kolkata"},{"key":"IN-Mumbai","latitude":"19.07283","longitude":"72.88261","name":"Mumbai"},{"key":"IN-New Delhi","latitude":"28.63576","longitude":"77.22445","name":"New Delhi"},{"key":"IN-Noida","latitude":"28.58","longitude":"77.33","name":"Noida"},{"key":"IN-Pune","latitude":"18.51957","longitude":"73.85535","name":"Pune"},{"key":"IN-Ramanathapuram","latitude":"9.37158","longitude":"78.83077","name":"Ramanathapuram"},{"key":"IN-Sahibabad","latitude":"10.01115","longitude":"68.82655","name":"Sahibabad"},{"key":"IN-Tiruppur","latitude":"11.11541","longitude":"77.35456","name":"Tiruppur"},{"key":"IN-Visakhapatnam","latitude":"17.68009","longitude":"83.20161","name":"Visakhapatnam"},{"key":"IT-Atripalda","latitude":"40.91867","longitude":"14.82721","name":"Atripalda"},{"key":"IT-Bassiano","latitude":"41.55154","longitude":"13.02732","name":"Bassiano"},{"key":"IT-Bicinicco","latitude":"45.93211","longitude":"13.253","name":"Bicinicco"},{"key":"IT-Cairo Montenotte","latitude":"44.3979","longitude":"8.27775","name":"Cairo Montenotte"},{"key":"IT-Calenzano","latitude":"43.85447","longitude":"11.16608","name":"Calenzano"},{"key":"IT-Calestano","latitude":"44.60224","longitude":"10.12363","name":"Calestano"},{"key":"IT-Cavallermaggiore","latitude":"44.70639","longitude":"7.68693","name":"Cavallermaggiore"},{"key":"IT-Cerbara","latitude":"43.49913","longitude":"12.21113","name":"Cerbara"},{"key":"IT-Cervignano del Friuli","latitude":"45.82082","longitude":"13.33929","name":"Cervignano del Friuli"},{"key":"IT-Corciano","latitude":"43.12821","longitude":"12.28684","name":"Corciano"},{"key":"IT-Cosenza","latitude":"39.2989","longitude":"16.25307","name":"Cosenza"},{"key":"IT-Diano Borello","latitude":"41.89193","longitude":"12.51133","name":"Diano Borello"},{"key":"IT-Este","latitude":"45.22338","longitude":"11.66379","name":"Este"},{"key":"IT-Ferrara","latitude":"44.83804","longitude":"11.62057","name":"Ferrara"},{"key":"IT-Florence","latitude":"43.77925","longitude":"11.24626","name":"Florence"},{"key":"IT-Gorgonzola","latitude":"45.53069","longitude":"9.40531","name":"Gorgonzola"},{"key":"IT-Gotham","latitude":"41.89193","longitude":"12.51133","name":"Gotham"},{"key":"IT-Lecce","latitude":"40.35481","longitude":"18.17244","name":"Lecce"},{"key":"IT-Milan","latitude":"45.46427","longitude":"9.18951","name":"Milan"},{"key":"IT-Naples","latitude":"40.85216","longitude":"14.26811","name":"Naples"},{"key":"IT-Nole","latitude":"45.24159","longitude":"7.56983","name":"Nole"},{"key":"IT-Padua","latitude":"41.89193","longitude":"12.51133","name":"Padua"},{"key":"IT-Pavia","latitude":"45.19205","longitude":"9.15917","name":"Pavia"},{"key":"IT-Ravenna","latitude":"44.41344","longitude":"12.20121","name":"Ravenna"},{"key":"IT-Rimini","latitude":"44.05755","longitude":"12.56528","name":"Rimini"},{"key":"IT-Rome","latitude":"41.89193","longitude":"12.51133","name":"Rome"},{"key":"IT-Roncofreddo","latitude":"44.04222","longitude":"12.30083","name":"Roncofreddo"},{"key":"IT-Rubano","latitude":"45.42514","longitude":"11.79146","name":"Rubano"},{"key":"IT-Ruvo di Puglia","latitude":"41.11758","longitude":"16.48421","name":"Ruvo di Puglia"},{"key":"IT-San Miniato","latitude":"43.67954","longitude":"10.84975","name":"San Miniato"},{"key":"IT-San Paolo Bel Sito","latitude":"40.91354","longitude":"14.54862","name":"San Paolo Bel Sito"},{"key":"IT-Sanremo","latitude":"41.89193","longitude":"12.51133","name":"Sanremo"},{"key":"IT-Sesto San Giovanni","latitude":"45.53329","longitude":"9.22585","name":"Sesto San Giovanni"},{"key":"IT-Terlizzi","latitude":"41.12905","longitude":"16.54536","name":"Terlizzi"},{"key":"IT-Trento","latitude":"46.06787","longitude":"11.12108","name":"Trento"},{"key":"IT-Treviso","latitude":"45.66673","longitude":"12.2416","name":"Treviso"},{"key":"IT-Truccazzano","latitude":"45.48455","longitude":"9.4695","name":"Truccazzano"},{"key":"IT-Turin","latitude":"45.07049","longitude":"7.68682","name":"Turin"},{"key":"IT-Varazze","latitude":"44.36412","longitude":"8.5963","name":"Varazze"},{"key":"IT-Varese","latitude":"45.82058","longitude":"8.82511","name":"Varese"},{"key":"IT-Voghera","latitude":"44.99151","longitude":"9.01175","name":"Voghera"},{"key":"KE-Gotham","latitude":"0.00624","longitude":"33.97248","name":"Gotham"},{"key":"LV-Riga","latitude":"56.946","longitude":"24.10589","name":"Riga"},{"key":"MO-Gotham","latitude":"22.20056","longitude":"113.54611","name":"Gotham"},{"key":"MY-Bandar","latitude":"1.24722","longitude":"100.13333","name":"Bandar"},{"key":"MY-Gopeng","latitude":"1.24722","longitude":"100.13333","name":"Gopeng"},{"key":"MY-Gotham","latitude":"1.24722","longitude":"100.13333","name":"Gotham"},{"key":"MY-Kluang","latitude":"2.03046","longitude":"103.31689","name":"Kluang"},{"key":"MY-Kuala Lumpur","latitude":"3.1412","longitude":"101.68653","name":"Kuala Lumpur"},{"key":"MY-Petaling Jaya","latitude":"3.10726","longitude":"101.60671","name":"Petaling Jaya"},{"key":"MY-Puchong Batu Dua Belas","latitude":"1.24722","longitude":"100.13333","name":"Puchong Batu Dua Belas"},{"key":"MY-Shah Alam","latitude":"3.08507","longitude":"101.53281","name":"Shah Alam"},{"key":"MY-Taman Senawang Indah","latitude":"1.24722","longitude":"100.13333","name":"Taman Senawang Indah"},{"key":"MX-San Fernando","latitude":"24.84749","longitude":"-98.14828","name":"San Fernando"},{"key":"NL-Amsterdam","latitude":"52.37403","longitude":"4.88969","name":"Amsterdam"},{"key":"NL-Apeldoorn","latitude":"52.21","longitude":"5.96944","name":"Apeldoorn"},{"key":"NL-Capelle aan den IJssel","latitude":"51.92917","longitude":"4.57778","name":"Capelle aan den IJssel"},{"key":"NL-Goes","latitude":"51.50417","longitude":"3.88889","name":"Goes"},{"key":"NL-Gotham","latitude":"50.77083","longitude":"3.38611","name":"Gotham"},{"key":"NL-Heerhugowaard","latitude":"52.67144","longitude":"4.84862","name":"Heerhugowaard"},{"key":"NL-Nootdorp","latitude":"50.77083","longitude":"3.38611","name":"Nootdorp"},{"key":"NL-Rotterdam","latitude":"51.9225","longitude":"4.47917","name":"Rotterdam"},{"key":"NL-Schiedam","latitude":"51.91917","longitude":"4.38889","name":"Schiedam"},{"key":"NL-'s-Hertogenbosch","latitude":"51.69917","longitude":"5.30417","name":"'s-Hertogenbosch"},{"key":"NL-Utrecht","latitude":"52.09083","longitude":"5.12222","name":"Utrecht"},{"key":"NL-Valkenswaard","latitude":"51.35083","longitude":"5.45972","name":"Valkenswaard"},{"key":"NL-Wapenveld","latitude":"52.42917","longitude":"6.07361","name":"Wapenveld"},{"key":"NZ-Christchurch","latitude":"-43.53333","longitude":"172.63333","name":"Christchurch"},{"key":"NZ-Gotham","latitude":"-34.99604","longitude":"167.71667","name":"Gotham"},{"key":"NG-Lagos","latitude":"6.45407","longitude":"3.39467","name":"Lagos"},{"key":"NO-Agotnes","latitude":"59.91273","longitude":"10.74609","name":"Agotnes"},{"key":"NO-Akrehamn","latitude":"59.91273","longitude":"10.74609","name":"Akrehamn"},{"key":"NO-Alta","latitude":"69.96887","longitude":"23.27165","name":"Alta"},{"key":"NO-Arendal","latitude":"58.46151","longitude":"8.77253","name":"Arendal"},{"key":"NO-As","latitude":"59.91273","longitude":"10.74609","name":"As"},{"key":"NO-Asker","latitude":"59.83333","longitude":"10.43721","name":"Asker"},{"key":"NO-Baerums verk","latitude":"59.91273","longitude":"10.74609","name":"Baerums verk"},{"key":"NO-Bergen","latitude":"60.39299","longitude":"5.32415","name":"Bergen"},{"key":"NO-Bodø","latitude":"67.28","longitude":"14.40501","name":"Bodø"},{"key":"NO-Bronnoysund","latitude":"65.47487","longitude":"12.21285","name":"Bronnoysund"},{"key":"NO-Drammen","latitude":"59.74389","longitude":"10.20449","name":"Drammen"},{"key":"NO-Eidfjord","latitude":"60.4675","longitude":"7.07193","name":"Eidfjord"},{"key":"NO-Espeland","latitude":"60.38249","longitude":"5.4657","name":"Espeland"},{"key":"NO-Fall","latitude":"59.91273","longitude":"10.74609","name":"Fall"},{"key":"NO-Fetsund","latitude":"59.92463","longitude":"11.15711","name":"Fetsund"},{"key":"NO-Fotlandsvag","latitude":"59.91273","longitude":"10.74609","name":"Fotlandsvag"},{"key":"NO-Gotham","latitude":"59.91273","longitude":"10.74609","name":"Gotham"},{"key":"NO-Granvin","latitude":"60.52408","longitude":"6.7194","name":"Granvin"},{"key":"NO-Grimstad","latitude":"58.3405","longitude":"8.59343","name":"Grimstad"},{"key":"NO-Halden","latitude":"59.12478","longitude":"11.38754","name":"Halden"},{"key":"NO-Hamar","latitude":"60.7945","longitude":"11.06798","name":"Hamar"},{"key":"NO-Hamarvik","latitude":"59.91273","longitude":"10.74609","name":"Hamarvik"},{"key":"NO-Havøysund","latitude":"59.91273","longitude":"10.74609","name":"Havøysund"},{"key":"NO-Heggedal","latitude":"59.91273","longitude":"10.74609","name":"Heggedal"},{"key":"NO-Hestvika","latitude":"59.91273","longitude":"10.74609","name":"Hestvika"},{"key":"NO-Hitra","latitude":"59.91273","longitude":"10.74609","name":"Hitra"},{"key":"NO-Honningsvåg","latitude":"70.98209","longitude":"25.97037","name":"Honningsvåg"},{"key":"NO-Hurdal","latitude":"60.43518","longitude":"11.06707","name":"Hurdal"},{"key":"NO-Innbygda","latitude":"61.31484","longitude":"12.26374","name":"Innbygda"},{"key":"NO-Karasjok","latitude":"59.91273","longitude":"10.74609","name":"Karasjok"},{"key":"NO-Karlshus","latitude":"59.35195","longitude":"10.87226","name":"Karlshus"},{"key":"NO-Kautokeino","latitude":"69.01247","longitude":"23.04116","name":"Kautokeino"},{"key":"NO-Kolbotn","latitude":"59.81056","longitude":"10.80389","name":"Kolbotn"},{"key":"NO-Kongsberg","latitude":"59.66858","longitude":"9.65017","name":"Kongsberg"},{"key":"NO-Kristiansand","latitude":"58.14671","longitude":"7.9956","name":"Kristiansand"},{"key":"NO-Kyrksaeterora","latitude":"63.29057","longitude":"9.08909","name":"Kyrksaeterora"},{"key":"NO-Lakselv","latitude":"70.05133","longitude":"24.97182","name":"Lakselv"},{"key":"NO-Laksevag","latitude":"59.91273","longitude":"10.74609","name":"Laksevag"},{"key":"NO-Levanger","latitude":"63.74644","longitude":"11.29963","name":"Levanger"},{"key":"NO-Loddefjord","latitude":"59.91273","longitude":"10.74609","name":"Loddefjord"},{"key":"NO-Lonevag","latitude":"59.91273","longitude":"10.74609","name":"Lonevag"},{"key":"NO-Malvik","latitude":"63.43333","longitude":"10.68333","name":"Malvik"},{"key":"NO-Melhus","latitude":"63.28555","longitude":"10.27806","name":"Melhus"},{"key":"NO-Moen","latitude":"69.13043","longitude":"18.61226","name":"Moen"},{"key":"NO-Moss","latitude":"59.43403","longitude":"10.65771","name":"Moss"},{"key":"NO-Mysen","latitude":"59.55354","longitude":"11.32578","name":"Mysen"},{"key":"NO-Nesttun","latitude":"59.91273","longitude":"10.74609","name":"Nesttun"},{"key":"NO-Nordvagen","latitude":"59.91273","longitude":"10.74609","name":"Nordvagen"},{"key":"NO-Oppdal","latitude":"62.59431","longitude":"9.6912","name":"Oppdal"},{"key":"NO-Orkanger","latitude":"63.30668","longitude":"9.85025","name":"Orkanger"},{"key":"NO-Oslo","latitude":"59.91273","longitude":"10.74609","name":"Oslo"},{"key":"NO-Porsgrunn","latitude":"59.14054","longitude":"9.6561","name":"Porsgrunn"},{"key":"NO-Rakvag","latitude":"59.91273","longitude":"10.74609","name":"Rakvag"},{"key":"NO-Saetre","latitude":"59.68129","longitude":"10.52749","name":"Saetre"},{"key":"NO-Sande","latitude":"61.32511","longitude":"5.79773","name":"Sande"},{"key":"NO-Sandefjord","latitude":"59.13118","longitude":"10.21665","name":"Sandefjord"},{"key":"NO-Skien","latitude":"59.20962","longitude":"9.60897","name":"Skien"},{"key":"NO-Skreia","latitude":"60.65257","longitude":"10.93564","name":"Skreia"},{"key":"NO-Skulestadmo","latitude":"59.91273","longitude":"10.74609","name":"Skulestadmo"},{"key":"NO-Stamsund","latitude":"59.91273","longitude":"10.74609","name":"Stamsund"},{"key":"NO-Stavanger","latitude":"58.97005","longitude":"5.73332","name":"Stavanger"},{"key":"NO-Svolvær","latitude":"68.23417","longitude":"14.56834","name":"Svolvær"},{"key":"NO-Tønsberg","latitude":"59.91273","longitude":"10.74609","name":"Tønsberg"},{"key":"NO-Tromsø","latitude":"69.6489","longitude":"18.95508","name":"Tromsø"},{"key":"NO-Trondheim","latitude":"63.43049","longitude":"10.39506","name":"Trondheim"},{"key":"NO-Værøy","latitude":"59.91273","longitude":"10.74609","name":"Værøy"},{"key":"NO-Varangerbotn","latitude":"59.91273","longitude":"10.74609","name":"Varangerbotn"},{"key":"NO-Vestfossen","latitude":"59.91273","longitude":"10.74609","name":"Vestfossen"},{"key":"NO-Vollen","latitude":"59.91273","longitude":"10.74609","name":"Vollen"},{"key":"NO-Voss","latitude":"60.62869","longitude":"6.41474","name":"Voss"},{"key":"PH-Manila","latitude":"14.6042","longitude":"120.9822","name":"Manila"},{"key":"PH-Pampanga","latitude":"10","longitude":"117.04868","name":"Pampanga"},{"key":"PL-Gotham","latitude":"49.21328","longitude":"14.20249","name":"Gotham"},{"key":"PL-Warsaw","latitude":"52.22977","longitude":"21.01178","name":"Warsaw"},{"key":"PT-Barreiro","latitude":"38.66314","longitude":"-9.0724","name":"Barreiro"},{"key":"PT-Gotham","latitude":"32.6448","longitude":"-16.33371","name":"Gotham"},{"key":"ZA-Alberton","latitude":"-26.26786","longitude":"28.12225","name":"Alberton"},{"key":"ZA-Cape Town","latitude":"-33.92584","longitude":"18.42322","name":"Cape Town"},{"key":"ZA-Germiston","latitude":"-26.23481","longitude":"28.17665","name":"Germiston"},{"key":"ZA-Gotham","latitude":"-22.34881","longitude":"16.8697","name":"Gotham"},{"key":"ZA-Johannesburg","latitude":"-26.20227","longitude":"28.04363","name":"Johannesburg"},{"key":"ZA-Kenton on Sea","latitude":"-22.34881","longitude":"16.8697","name":"Kenton on Sea"},{"key":"ZA-Midrand","latitude":"-25.98953","longitude":"28.12843","name":"Midrand"},{"key":"ZA-Port Elizabeth","latitude":"-33.96109","longitude":"25.61494","name":"Port Elizabeth"},{"key":"ZA-Roodepoort","latitude":"-26.1625","longitude":"27.8725","name":"Roodepoort"},{"key":"ZA-Soweto","latitude":"-26.26781","longitude":"27.85849","name":"Soweto"},{"key":"ES-Barcelona","latitude":"41.38879","longitude":"2.15899","name":"Barcelona"},{"key":"ES-Gotham","latitude":"40.4165","longitude":"-3.70256","name":"Gotham"},{"key":"ES-Salamanca","latitude":"40.96882","longitude":"-5.66388","name":"Salamanca"},{"key":"SE-Akersberga","latitude":"59.33258","longitude":"18.0649","name":"Akersberga"},{"key":"SE-Alingsas","latitude":"59.33258","longitude":"18.0649","name":"Alingsas"},{"key":"SE-Angered","latitude":"57.78628","longitude":"12.09852","name":"Angered"},{"key":"SE-Åre","latitude":"63.39911","longitude":"13.07995","name":"Åre"},{"key":"SE-Backa","latitude":"64.98333","longitude":"21.06667","name":"Backa"},{"key":"SE-Bandhagen","latitude":"59.33258","longitude":"18.0649","name":"Bandhagen"},{"key":"SE-Bjaerred","latitude":"59.33258","longitude":"18.0649","name":"Bjaerred"},{"key":"SE-Bjoerklinge","latitude":"60.03004","longitude":"17.55203","name":"Bjoerklinge"},{"key":"SE-Bjursas","latitude":"59.33258","longitude":"18.0649","name":"Bjursas"},{"key":"SE-Borlänge","latitude":"60.4858","longitude":"15.43714","name":"Borlänge"},{"key":"SE-Bromma","latitude":"59.34","longitude":"17.94","name":"Bromma"},{"key":"SE-Bunkeflostrand","latitude":"55.54478","longitude":"12.92375","name":"Bunkeflostrand"},{"key":"SE-Dalstorp","latitude":"59.33258","longitude":"18.0649","name":"Dalstorp"},{"key":"SE-Eskilstuna","latitude":"59.36661","longitude":"16.5077","name":"Eskilstuna"},{"key":"SE-Esloev","latitude":"55.83928","longitude":"13.30393","name":"Esloev"},{"key":"SE-Falkenberg","latitude":"56.90552","longitude":"12.49118","name":"Falkenberg"},{"key":"SE-Falköping","latitude":"58.17347","longitude":"13.55068","name":"Falköping"},{"key":"SE-Frillesas","latitude":"59.33258","longitude":"18.0649","name":"Frillesas"},{"key":"SE-Gävle","latitude":"60.67452","longitude":"17.14174","name":"Gävle"},{"key":"SE-Gislaved","latitude":"57.3044","longitude":"13.54078","name":"Gislaved"},{"key":"SE-Gotham","latitude":"59.33258","longitude":"18.0649","name":"Gotham"},{"key":"SE-Gothenburg","latitude":"57.70716","longitude":"11.96679","name":"Gothenburg"},{"key":"SE-Graestorp","latitude":"58.33219","longitude":"12.68122","name":"Graestorp"},{"key":"SE-Grums","latitude":"59.35141","longitude":"13.11105","name":"Grums"},{"key":"SE-Gunnarskog","latitude":"59.33258","longitude":"18.0649","name":"Gunnarskog"},{"key":"SE-Haegersten","latitude":"59.33258","longitude":"18.0649","name":"Haegersten"},{"key":"SE-Haelleforsnaes","latitude":"59.33258","longitude":"18.0649","name":"Haelleforsnaes"},{"key":"SE-Hallviken","latitude":"59.33258","longitude":"18.0649","name":"Hallviken"},{"key":"SE-Halmstad","latitude":"56.67446","longitude":"12.85676","name":"Halmstad"},{"key":"SE-Haparanda","latitude":"65.83549","longitude":"24.13676","name":"Haparanda"},{"key":"SE-Härnösand","latitude":"62.63228","longitude":"17.93794","name":"Härnösand"},{"key":"SE-Helsingborg","latitude":"56.04673","longitude":"12.69437","name":"Helsingborg"},{"key":"SE-Hofors","latitude":"60.54573","longitude":"16.28668","name":"Hofors"},{"key":"SE-Hovas","latitude":"59.33258","longitude":"18.0649","name":"Hovas"},{"key":"SE-Hudiksvall","latitude":"61.72744","longitude":"17.10558","name":"Hudiksvall"},{"key":"SE-Johanneshov","latitude":"59.33258","longitude":"18.0649","name":"Johanneshov"},{"key":"SE-Jönköping","latitude":"57.78145","longitude":"14.15618","name":"Jönköping"},{"key":"SE-Kaevlinge","latitude":"59.33258","longitude":"18.0649","name":"Kaevlinge"},{"key":"SE-Kallinge","latitude":"56.24841","longitude":"15.28721","name":"Kallinge"},{"key":"SE-Kalmar","latitude":"56.66157","longitude":"16.36163","name":"Kalmar"},{"key":"SE-Karlstad","latitude":"59.3793","longitude":"13.50357","name":"Karlstad"},{"key":"SE-Karra","latitude":"59.33258","longitude":"18.0649","name":"Karra"},{"key":"SE-Kil","latitude":"59.50234","longitude":"13.31277","name":"Kil"},{"key":"SE-Kinna","latitude":"57.50728","longitude":"12.69463","name":"Kinna"},{"key":"SE-Koeping","latitude":"59.51404","longitude":"15.99255","name":"Koeping"},{"key":"SE-Kungsaengen","latitude":"59.47857","longitude":"17.74834","name":"Kungsaengen"},{"key":"SE-Kungsbacka","latitude":"57.48719","longitude":"12.07612","name":"Kungsbacka"},{"key":"SE-Kyrkhult","latitude":"59.33258","longitude":"18.0649","name":"Kyrkhult"},{"key":"SE-Landskrona","latitude":"55.8708","longitude":"12.83016","name":"Landskrona"},{"key":"SE-Leksand","latitude":"60.7303","longitude":"14.99994","name":"Leksand"},{"key":"SE-Lidkoeping","latitude":"58.50517","longitude":"13.15765","name":"Lidkoeping"},{"key":"SE-Linköping","latitude":"58.41086","longitude":"15.62157","name":"Linköping"},{"key":"SE-Luleå","latitude":"65.58415","longitude":"22.15465","name":"Luleå"},{"key":"SE-Lund","latitude":"55.70584","longitude":"13.19321","name":"Lund"},{"key":"SE-Maersta","latitude":"59.33258","longitude":"18.0649","name":"Maersta"},{"key":"SE-Malmo","latitude":"55.60587","longitude":"13.00073","name":"Malmo"},{"key":"SE-Moelndal","latitude":"57.6554","longitude":"12.01378","name":"Moelndal"},{"key":"SE-Motala","latitude":"58.53706","longitude":"15.03649","name":"Motala"},{"key":"SE-OErsundsbro","latitude":"59.73333","longitude":"17.3","name":"OErsundsbro"},{"key":"SE-OEsthammar","latitude":"60.25909","longitude":"18.37408","name":"OEsthammar"},{"key":"SE-Olofstroem","latitude":"56.2773","longitude":"14.53402","name":"Olofstroem"},{"key":"SE-Östersund","latitude":"63.1792","longitude":"14.63566","name":"Östersund"},{"key":"SE-Partille","latitude":"57.7395","longitude":"12.10642","name":"Partille"},{"key":"SE-Rimbo","latitude":"59.75","longitude":"18.36667","name":"Rimbo"},{"key":"SE-Roennaeng","latitude":"59.33258","longitude":"18.0649","name":"Roennaeng"},{"key":"SE-Ronneby","latitude":"56.20999","longitude":"15.27602","name":"Ronneby"},{"key":"SE-Saeffle","latitude":"59.33258","longitude":"18.0649","name":"Saeffle"},{"key":"SE-Skara","latitude":"58.38659","longitude":"13.43836","name":"Skara"},{"key":"SE-Skarpnaeck","latitude":"59.33258","longitude":"18.0649","name":"Skarpnaeck"},{"key":"SE-Skövde","latitude":"58.39118","longitude":"13.84506","name":"Skövde"},{"key":"SE-Solna","latitude":"59.36004","longitude":"18.00086","name":"Solna"},{"key":"SE-Sölvesborg","latitude":"56.05205","longitude":"14.57525","name":"Sölvesborg"},{"key":"SE-Stockholm","latitude":"59.33258","longitude":"18.0649","name":"Stockholm"},{"key":"SE-Sundbyberg","latitude":"59.36128","longitude":"17.97114","name":"Sundbyberg"},{"key":"SE-Sundsvall","latitude":"62.39129","longitude":"17.3063","name":"Sundsvall"},{"key":"SE-Taby","latitude":"59.33258","longitude":"18.0649","name":"Taby"},{"key":"SE-Tavelsjoe","latitude":"59.33258","longitude":"18.0649","name":"Tavelsjoe"},{"key":"SE-Tierp","latitude":"60.34269","longitude":"17.51812","name":"Tierp"},{"key":"SE-Timra","latitude":"59.33258","longitude":"18.0649","name":"Timra"},{"key":"SE-Trollhättan","latitude":"58.28365","longitude":"12.28864","name":"Trollhättan"},{"key":"SE-Tvaaker","latitude":"59.33258","longitude":"18.0649","name":"Tvaaker"},{"key":"SE-Umeå","latitude":"63.82842","longitude":"20.25972","name":"Umeå"},{"key":"SE-Uppsala","latitude":"59.85882","longitude":"17.63889","name":"Uppsala"},{"key":"SE-Vaenersborg","latitude":"58.38075","longitude":"12.3234","name":"Vaenersborg"},{"key":"SE-Vara","latitude":"58.26234","longitude":"12.95413","name":"Vara"},{"key":"SE-Varberg","latitude":"57.10557","longitude":"12.25078","name":"Varberg"},{"key":"SE-Varekil","latitude":"59.33258","longitude":"18.0649","name":"Varekil"},{"key":"SE-Vasby","latitude":"59.33258","longitude":"18.0649","name":"Vasby"},{"key":"SE-Västerås","latitude":"59.61617","longitude":"16.55276","name":"Västerås"},{"key":"SE-Vaxjo","latitude":"59.33258","longitude":"18.0649","name":"Vaxjo"},{"key":"SE-Vetlanda","latitude":"57.42887","longitude":"15.07762","name":"Vetlanda"},{"key":"SE-Viken","latitude":"64.72587","longitude":"20.91548","name":"Viken"},{"key":"SE-Vislanda","latitude":"56.78333","longitude":"14.45","name":"Vislanda"},{"key":"CH-Villars-sur-Glane","latitude":"45.83203","longitude":"10.05823","name":"Villars-sur-Glane"},{"key":"TH-Bangkok","latitude":"13.75398","longitude":"100.50144","name":"Bangkok"},{"key":"TH-Nonthaburi","latitude":"10.09808","longitude":"100.00264","name":"Nonthaburi"},{"key":"GB-Ayr","latitude":"55.46273","longitude":"-4.63393","name":"Ayr"},{"key":"GB-Birkenhead","latitude":"53.39337","longitude":"-3.01479","name":"Birkenhead"},{"key":"GB-Congleton","latitude":"53.16314","longitude":"-2.21253","name":"Congleton"},{"key":"GB-Edinburgh","latitude":"55.95206","longitude":"-3.19648","name":"Edinburgh"},{"key":"GB-Friern Barnet","latitude":"51.50853","longitude":"-0.12574","name":"Friern Barnet"},{"key":"GB-Gotham","latitude":"51.50853","longitude":"-0.12574","name":"Gotham"},{"key":"GB-Hendon","latitude":"51.6","longitude":"-0.21667","name":"Hendon"},{"key":"GB-Islington","latitude":"51.53622","longitude":"-0.10304","name":"Islington"},{"key":"GB-London","latitude":"51.50853","longitude":"-0.12574","name":"London"},{"key":"GB-Newbiggin","latitude":"54.64171","longitude":"-2.13555","name":"Newbiggin"},{"key":"GB-Radcliffe","latitude":"53.56178","longitude":"-2.32455","name":"Radcliffe"},{"key":"GB-Tottenham","latitude":"51.50853","longitude":"-0.12574","name":"Tottenham"},{"key":"US-Abbeville","latitude":"31.99212","longitude":"-83.30682","name":"Abbeville"},{"key":"US-Ada","latitude":"34.77453","longitude":"-96.67834","name":"Ada"},{"key":"US-Akron","latitude":"42.82888","longitude":"-96.55948","name":"Akron"},{"key":"US-Alexandria","latitude":"38.95951","longitude":"-84.38799","name":"Alexandria"},{"key":"US-Altadena","latitude":"34.18973","longitude":"-118.13118","name":"Altadena"},{"key":"US-Alvin","latitude":"29.42385","longitude":"-95.2441","name":"Alvin"},{"key":"US-Annapolis","latitude":"38.97845","longitude":"-76.49218","name":"Annapolis"},{"key":"US-Ashburn","latitude":"31.70601","longitude":"-83.65322","name":"Ashburn"},{"key":"US-Atlanta","latitude":"33.749","longitude":"-84.38798","name":"Atlanta"},{"key":"US-Aurora","latitude":"39.057","longitude":"-84.90134","name":"Aurora"},{"key":"US-Austin","latitude":"34.99842","longitude":"-91.98376","name":"Austin"},{"key":"US-Baltimore","latitude":"39.29038","longitude":"-76.61219","name":"Baltimore"},{"key":"US-Bellevue","latitude":"39.10645","longitude":"-84.47883","name":"Bellevue"},{"key":"US-Bethesda","latitude":"38.98067","longitude":"-77.10026","name":"Bethesda"},{"key":"US-Birmingham","latitude":"33.52066","longitude":"-86.80249","name":"Birmingham"},{"key":"US-Blacksburg","latitude":"35.12124","longitude":"-81.51592","name":"Blacksburg"},{"key":"US-Boardman","latitude":"41.02423","longitude":"-80.66285","name":"Boardman"},{"key":"US-Bowling Green","latitude":"27.63837","longitude":"-81.82397","name":"Bowling Green"},{"key":"US-Boydton","latitude":"36.66764","longitude":"-78.3875","name":"Boydton"},{"key":"US-Boyers","latitude":"38.89511","longitude":"-77.03637","name":"Boyers"},{"key":"US-Brandon","latitude":"27.9378","longitude":"-82.28592","name":"Brandon"},{"key":"US-Brooklyn","latitude":"39.53921","longitude":"-86.36916","name":"Brooklyn"},{"key":"US-Buffalo","latitude":"37.64393","longitude":"-93.09241","name":"Buffalo"},{"key":"US-Byron","latitude":"32.65376","longitude":"-83.75963","name":"Byron"},{"key":"US-Campbell","latitude":"28.2589","longitude":"-81.45646","name":"Campbell"},{"key":"US-Cedar City","latitude":"37.67748","longitude":"-113.06189","name":"Cedar City"},{"key":"US-Cementon","latitude":"40.68926","longitude":"-75.50768","name":"Cementon"},{"key":"US-Charlotte","latitude":"35.22709","longitude":"-80.84313","name":"Charlotte"},{"key":"US-Chicago","latitude":"41.85003","longitude":"-87.65005","name":"Chicago"},{"key":"US-Chillicothe","latitude":"39.79529","longitude":"-93.55244","name":"Chillicothe"},{"key":"US-Cleveland","latitude":"33.99093","longitude":"-86.57749","name":"Cleveland"},{"key":"US-Clifton","latitude":"35.38702","longitude":"-87.99531","name":"Clifton"},{"key":"US-Clovis","latitude":"36.82523","longitude":"-119.70292","name":"Clovis"},{"key":"US-Collegeville","latitude":"45.59441","longitude":"-94.36305","name":"Collegeville"},{"key":"US-Collierville","latitude":"35.04204","longitude":"-89.66453","name":"Collierville"},{"key":"US-Columbus","latitude":"32.46098","longitude":"-84.98771","name":"Columbus"},{"key":"US-Coraopolis","latitude":"40.5184","longitude":"-80.16672","name":"Coraopolis"},{"key":"US-Cupertino","latitude":"37.323","longitude":"-122.03218","name":"Cupertino"},{"key":"US-Dallas","latitude":"33.92371","longitude":"-84.84077","name":"Dallas"},{"key":"US-Duluth","latitude":"34.00288","longitude":"-84.14464","name":"Duluth"},{"key":"US-Easton","latitude":"38.77428","longitude":"-76.07633","name":"Easton"},{"key":"US-El Paso","latitude":"40.7392","longitude":"-89.01646","name":"El Paso"},{"key":"US-Elizabeth","latitude":"39.06341","longitude":"-81.39512","name":"Elizabeth"},{"key":"US-Fairfield","latitude":"33.48594","longitude":"-86.91194","name":"Fairfield"},{"key":"US-Fayetteville","latitude":"33.14567","longitude":"-86.40581","name":"Fayetteville"},{"key":"US-Fontana","latitude":"42.55141","longitude":"-88.5751","name":"Fontana"},{"key":"US-Fort Lauderdale","latitude":"26.12231","longitude":"-80.14338","name":"Fort Lauderdale"},{"key":"US-Fountain Hills","latitude":"33.61171","longitude":"-111.71736","name":"Fountain Hills"},{"key":"US-Fredonia","latitude":"37.53394","longitude":"-95.82665","name":"Fredonia"},{"key":"US-Germantown","latitude":"38.55366","longitude":"-89.53842","name":"Germantown"},{"key":"US-Glen Burnie","latitude":"39.16261","longitude":"-76.62469","name":"Glen Burnie"},{"key":"US-Gotham","latitude":"38.89511","longitude":"-77.03637","name":"Gotham"},{"key":"US-Grand Rapids","latitude":"42.96336","longitude":"-85.66809","name":"Grand Rapids"},{"key":"US-Hampton","latitude":"33.53789","longitude":"-92.46988","name":"Hampton"},{"key":"US-Harrisburg","latitude":"35.56425","longitude":"-90.71678","name":"Harrisburg"},{"key":"US-Hayes","latitude":"38.89511","longitude":"-77.03637","name":"Hayes"},{"key":"US-Helotes","latitude":"29.57801","longitude":"-98.68975","name":"Helotes"},{"key":"US-Herndon","latitude":"38.96955","longitude":"-77.3861","name":"Herndon"},{"key":"US-Hilliard","latitude":"30.69107","longitude":"-81.91733","name":"Hilliard"},{"key":"US-Irvine","latitude":"37.70064","longitude":"-83.97381","name":"Irvine"},{"key":"US-Lafayette","latitude":"34.7048","longitude":"-85.40106","name":"Lafayette"},{"key":"US-Lake Forest","latitude":"25.97759","longitude":"-80.1831","name":"Lake Forest"},{"key":"US-Lake Mary","latitude":"28.75888","longitude":"-81.31784","name":"Lake Mary"},{"key":"US-Lakeland","latitude":"28.03947","longitude":"-81.9498","name":"Lakeland"},{"key":"US-Las Vegas","latitude":"35.59393","longitude":"-105.2239","name":"Las Vegas"},{"key":"US-Latta","latitude":"34.3371","longitude":"-79.43116","name":"Latta"},{"key":"US-Leander","latitude":"30.57881","longitude":"-97.85307","name":"Leander"},{"key":"US-Livingston","latitude":"32.5843","longitude":"-88.18725","name":"Livingston"},{"key":"US-London","latitude":"35.32897","longitude":"-93.25296","name":"London"},{"key":"US-Los Angeles","latitude":"34.05223","longitude":"-118.24368","name":"Los Angeles"},{"key":"US-Madison","latitude":"34.69926","longitude":"-86.74833","name":"Madison"},{"key":"US-Maitland","latitude":"28.62778","longitude":"-81.36312","name":"Maitland"},{"key":"US-Mantorville","latitude":"44.06913","longitude":"-92.75575","name":"Mantorville"},{"key":"US-Maryland Heights","latitude":"38.71311","longitude":"-90.42984","name":"Maryland Heights"},{"key":"US-McMinnville","latitude":"35.6834","longitude":"-85.76998","name":"McMinnville"},{"key":"US-Melbourne Beach","latitude":"28.06835","longitude":"-80.56033","name":"Melbourne Beach"},{"key":"US-Mentor","latitude":"41.66616","longitude":"-81.33955","name":"Mentor"},{"key":"US-Miami","latitude":"25.77427","longitude":"-80.19366","name":"Miami"},{"key":"US-Middletown","latitude":"39.44956","longitude":"-75.71632","name":"Middletown"},{"key":"US-Minneapolis","latitude":"39.12194","longitude":"-97.7067","name":"Minneapolis"},{"key":"US-Monument","latitude":"39.09166","longitude":"-104.87276","name":"Monument"},{"key":"US-Mountain View","latitude":"35.86841","longitude":"-92.11765","name":"Mountain View"},{"key":"US-Moyock","latitude":"36.5246","longitude":"-76.17827","name":"Moyock"},{"key":"US-Myrtle Beach","latitude":"33.68906","longitude":"-78.88669","name":"Myrtle Beach"},{"key":"US-Naples","latitude":"26.14234","longitude":"-81.79596","name":"Naples"},{"key":"US-New York","latitude":"40.71427","longitude":"-74.00597","name":"New York"},{"key":"US-Newburyport","latitude":"42.81259","longitude":"-70.87728","name":"Newburyport"},{"key":"US-Newport Beach","latitude":"33.61891","longitude":"-117.92895","name":"Newport Beach"},{"key":"US-Newport News","latitude":"37.08339","longitude":"-76.46965","name":"Newport News"},{"key":"US-Norfolk","latitude":"36.84681","longitude":"-76.28522","name":"Norfolk"},{"key":"US-Novelty","latitude":"38.89511","longitude":"-77.03637","name":"Novelty"},{"key":"US-Oklahoma City","latitude":"35.46756","longitude":"-97.51643","name":"Oklahoma City"},{"key":"US-Omaha","latitude":"41.25626","longitude":"-95.94043","name":"Omaha"},{"key":"US-Orlando","latitude":"28.53834","longitude":"-81.37924","name":"Orlando"},{"key":"US-Painesville","latitude":"41.72449","longitude":"-81.24566","name":"Painesville"},{"key":"US-Pinellas Park","latitude":"27.8428","longitude":"-82.69954","name":"Pinellas Park"},{"key":"US-Pleasanton","latitude":"38.17781","longitude":"-94.71135","name":"Pleasanton"},{"key":"US-Pleasantville","latitude":"39.38984","longitude":"-74.52404","name":"Pleasantville"},{"key":"US-Portsmouth","latitude":"38.73174","longitude":"-82.99767","name":"Portsmouth"},{"key":"US-Prosper","latitude":"33.23623","longitude":"-96.80111","name":"Prosper"},{"key":"US-Rancho Cordova","latitude":"38.58907","longitude":"-121.30273","name":"Rancho Cordova"},{"key":"US-Rancho Palos Verdes","latitude":"33.74446","longitude":"-118.38702","name":"Rancho Palos Verdes"},{"key":"US-Redmond","latitude":"44.27262","longitude":"-121.17392","name":"Redmond"},{"key":"US-Reston","latitude":"38.96872","longitude":"-77.3411","name":"Reston"},{"key":"US-Richmond","latitude":"39.82894","longitude":"-84.89024","name":"Richmond"},{"key":"US-Roanoke","latitude":"33.15123","longitude":"-85.37217","name":"Roanoke"},{"key":"US-Rochester","latitude":"39.74949","longitude":"-89.53176","name":"Rochester"},{"key":"US-Rock Spring","latitude":"38.89511","longitude":"-77.03637","name":"Rock Spring"},{"key":"US-Rocklin","latitude":"38.79073","longitude":"-121.23578","name":"Rocklin"},{"key":"US-Rocky River","latitude":"41.4756","longitude":"-81.8393","name":"Rocky River"},{"key":"US-Salt Lake City","latitude":"40.76078","longitude":"-111.89105","name":"Salt Lake City"},{"key":"US-San Antonio","latitude":"28.33611","longitude":"-82.27453","name":"San Antonio"},{"key":"US-San Diego","latitude":"27.76391","longitude":"-98.2389","name":"San Diego"},{"key":"US-San Francisco","latitude":"37.77493","longitude":"-122.41942","name":"San Francisco"},{"key":"US-San Jose","latitude":"37.33939","longitude":"-121.89496","name":"San Jose"},{"key":"US-San Marcos","latitude":"29.88327","longitude":"-97.94139","name":"San Marcos"},{"key":"US-Santa Ana","latitude":"33.74557","longitude":"-117.86783","name":"Santa Ana"},{"key":"US-Seattle","latitude":"47.60621","longitude":"-122.33207","name":"Seattle"},{"key":"US-Shallotte","latitude":"33.97323","longitude":"-78.38584","name":"Shallotte"},{"key":"US-Silver Spring","latitude":"38.99067","longitude":"-77.02609","name":"Silver Spring"},{"key":"US-Slidell","latitude":"30.27519","longitude":"-89.78117","name":"Slidell"},{"key":"US-Smyrna","latitude":"39.29983","longitude":"-75.60465","name":"Smyrna"},{"key":"US-Snellville","latitude":"33.85733","longitude":"-84.01991","name":"Snellville"},{"key":"US-St Louis","latitude":"38.89511","longitude":"-77.03637","name":"St Louis"},{"key":"US-Stockton","latitude":"39.43807","longitude":"-99.2651","name":"Stockton"},{"key":"US-Stone Mountain","latitude":"33.80816","longitude":"-84.1702","name":"Stone Mountain"},{"key":"US-Suffolk","latitude":"36.72836","longitude":"-76.58496","name":"Suffolk"},{"key":"US-Superior","latitude":"40.02085","longitude":"-98.07004","name":"Superior"},{"key":"US-Tampa","latitude":"27.94752","longitude":"-82.45843","name":"Tampa"},{"key":"US-Tolleson","latitude":"33.45004","longitude":"-112.25932","name":"Tolleson"},{"key":"US-Tuckerton","latitude":"39.60317","longitude":"-74.34015","name":"Tuckerton"},{"key":"US-Utica","latitude":"34.67816","longitude":"-82.93154","name":"Utica"},{"key":"US-Ventura","latitude":"34.27834","longitude":"-119.29317","name":"Ventura"},{"key":"US-Virginia Beach","latitude":"36.85293","longitude":"-75.97799","name":"Virginia Beach"},{"key":"US-Visalia","latitude":"36.33023","longitude":"-119.29206","name":"Visalia"},{"key":"US-Waldorf","latitude":"38.62456","longitude":"-76.93914","name":"Waldorf"},{"key":"US-Walker","latitude":"30.48797","longitude":"-90.86149","name":"Walker"},{"key":"US-Washington","latitude":"33.73679","longitude":"-82.73931","name":"Washington"},{"key":"US-Williamsburg","latitude":"28.41445","longitude":"-81.44285","name":"Williamsburg"},{"key":"US-Wilson","latitude":"35.72127","longitude":"-77.91554","name":"Wilson"},{"key":"US-Windermere","latitude":"28.49556","longitude":"-81.5348","name":"Windermere"},{"key":"VN-Hanoi","latitude":"21.0245","longitude":"105.84117","name":"Hanoi"}]