[{"key":"AL-Gotham","latitude":"39.65889","longitude":"19.40556","name":"Gotham"},{"key":"DZ-Batna City","latitude":"22.785","longitude":"-0.05037","name":"Batna City"},{"key":"AO-Luanda","latitude":"-8.83682","longitude":"13.23432","name":"Luanda"},{"key":"AR-Gotham","latitude":"-21.94467","longitude":"-53.64581","name":"Gotham"},{"key":"AU-Abbotsford","latitude":"-37.8","longitude":"145","name":"Abbotsford"},{"key":"AU-Adamstown","latitude":"-10.58257","longitude":"113.65713","name":"Adamstown"},{"key":"AU-Adamstown Heights","latitude":"-10.58257","longitude":"113.65713","name":"Adamstown Heights"},{"key":"AU-Adelaide","latitude":"-34.92866","longitude":"138.59863","name":"Adelaide"},{"key":"AU-Albany Creek","latitude":"-10.58257","longitude":"113.65713","name":"Albany Creek"},{"key":"AU-Albert Park","latitude":"-37.83333","longitude":"145","name":"Albert Park"},{"key":"AU-Alderley","latitude":"-10.58257","longitude":"113.65713","name":"Alderley"},{"key":"AU-Alexandra Hills","latitude":"-10.58257","longitude":"113.65713","name":"Alexandra Hills"},{"key":"AU-Alexandria","latitude":"-33.91667","longitude":"151.2","name":"Alexandria"},{"key":"AU-Alice Springs","latitude":"-23.69748","longitude":"133.88362","name":"Alice Springs"},{"key":"AU-Allawah","latitude":"-10.58257","longitude":"113.65713","name":"Allawah"},{"key":"AU-Alphington","latitude":"-37.78333","longitude":"145.03333","name":"Alphington"},{"key":"AU-Altona Meadows","latitude":"-37.88413","longitude":"144.78367","name":"Altona Meadows"},{"key":"AU-Annandale","latitude":"-10.58257","longitude":"113.65713","name":"Annandale"},{"key":"AU-Appin","latitude":"-10.58257","longitude":"113.65713","name":"Appin"},{"key":"AU-Applecross","latitude":"-32.01667","longitude":"115.83333","name":"Applecross"},{"key":"AU-Armadale","latitude":"-32.14607","longitude":"116.0093","name":"Armadale"},{"key":"AU-Artarmon","latitude":"-33.81667","longitude":"151.18333","name":"Artarmon"},{"key":"AU-Ascot Vale","latitude":"-37.78333","longitude":"144.91667","name":"Ascot Vale"},{"key":"AU-Ashburton","latitude":"-37.86667","longitude":"145.08333","name":"Ashburton"},{"key":"AU-Ashfield","latitude":"-33.88834","longitude":"151.12274","name":"Ashfield"},{"key":"AU-Ashmore","latitude":"-10.58257","longitude":"113.65713","name":"Ashmore"},{"key":"AU-Ashwood","latitude":"-37.86659","longitude":"145.10553","name":"Ashwood"},{"key":"AU-Aspley","latitude":"-10.58257","longitude":"113.65713","name":"Aspley"},{"key":"AU-Athelstone","latitude":"-34.87019","longitude":"138.6999","name":"Athelstone"},{"key":"AU-Auburn","latitude":"-33.85","longitude":"151.03333","name":"Auburn"},{"key":"AU-Bairnsdale","latitude":"-37.82289","longitude":"147.61041","name":"Bairnsdale"},{"key":"AU-Ballajura","latitude":"-31.84062","longitude":"115.89549","name":"Ballajura"},{"key":"AU-Ballarat","latitude":"-37.56622","longitude":"143.84957","name":"Ballarat"},{"key":"AU-Balmain","latitude":"-33.85481","longitude":"151.1833","name":"Balmain"},{"key":"AU-Balwyn North","latitude":"-37.79086","longitude":"145.09386","name":"Balwyn North"},{"key":"AU-Bankstown","latitude":"-33.91667","longitude":"151.03333","name":"Bankstown"},{"key":"AU-Barangaroo","latitude":"-10.58257","longitude":"113.65713","name":"Barangaroo"},{"key":"AU-Bargo","latitude":"-10.58257","longitude":"113.65713","name":"Bargo"},{"key":"AU-Bassendean","latitude":"-31.90906","longitude":"115.9437","name":"Bassendean"},{"key":"AU-Bedford Park","latitude":"-35.03333","longitude":"138.56667","name":"Bedford Park"},{"key":"AU-Beechboro","latitude":"-10.58257","longitude":"113.65713","name":"Beechboro"},{"key":"AU-Beeliar","latitude":"-32.13339","longitude":"115.80637","name":"Beeliar"},{"key":"AU-Belfield","latitude":"-33.90354","longitude":"151.08467","name":"Belfield"},{"key":"AU-Bella Vista","latitude":"-10.58257","longitude":"113.65713","name":"Bella Vista"},{"key":"AU-Belmont","latitude":"-33.0274","longitude":"151.6601","name":"Belmont"},{"key":"AU-Belmont North","latitude":"-33.02081","longitude":"151.66849","name":"Belmont North"},{"key":"AU-Bentleigh East","latitude":"-10.58257","longitude":"113.65713","name":"Bentleigh East"},{"key":"AU-Bentley","latitude":"-32","longitude":"115.91667","name":"Bentley"},{"key":"AU-Berwick","latitude":"-38.03333","longitude":"145.35","name":"Berwick"},{"key":"AU-Blackburn","latitude":"-37.81901","longitude":"145.15326","name":"Blackburn"},{"key":"AU-Blacktown","latitude":"-33.76667","longitude":"150.91667","name":"Blacktown"},{"key":"AU-Blakeview","latitude":"-10.58257","longitude":"113.65713","name":"Blakeview"},{"key":"AU-Blaxland","latitude":"-33.75","longitude":"150.6","name":"Blaxland"},{"key":"AU-Bonbeach","latitude":"-38.06528","longitude":"145.12278","name":"Bonbeach"},{"key":"AU-Bondi","latitude":"-33.89429","longitude":"151.26444","name":"Bondi"},{"key":"AU-Bondi Beach","latitude":"-33.89079","longitude":"151.27852","name":"Bondi Beach"},{"key":"AU-Bossley Park","latitude":"-33.86184","longitude":"150.8841","name":"Bossley Park"},{"key":"AU-Bowral","latitude":"-34.4775","longitude":"150.4204","name":"Bowral"},{"key":"AU-Box Hill","latitude":"-37.81887","longitude":"145.12545","name":"Box Hill"},{"key":"AU-Bray Park","latitude":"-10.58257","longitude":"113.65713","name":"Bray Park"},{"key":"AU-Brighton","latitude":"-35.0182","longitude":"138.52351","name":"Brighton"},{"key":"AU-Brisbane","latitude":"-27.46794","longitude":"153.02809","name":"Brisbane"},{"key":"AU-Bronte","latitude":"-33.90198","longitude":"151.26556","name":"Bronte"},{"key":"AU-Brookfield","latitude":"-37.7008","longitude":"144.56025","name":"Brookfield"},{"key":"AU-Brooklyn Park","latitude":"-10.58257","longitude":"113.65713","name":"Brooklyn Park"},{"key":"AU-Brookwater","latitude":"-10.58257","longitude":"113.65713","name":"Brookwater"},{"key":"AU-Broome","latitude":"-17.95538","longitude":"122.23922","name":"Broome"},{"key":"AU-Brunswick","latitude":"-37.76667","longitude":"144.96667","name":"Brunswick"},{"key":"AU-Brunswick East","latitude":"-37.77255","longitude":"144.97241","name":"Brunswick East"},{"key":"AU-Brunswick West","latitude":"-37.76461","longitude":"144.94383","name":"Brunswick West"},{"key":"AU-Bundall","latitude":"-10.58257","longitude":"113.65713","name":"Bundall"},{"key":"AU-Bungarribee","latitude":"-10.58257","longitude":"113.65713","name":"Bungarribee"},{"key":"AU-Burpengary","latitude":"-27.15746","longitude":"152.95758","name":"Burpengary"},{"key":"AU-Burwood","latitude":"-33.88333","longitude":"151.1","name":"Burwood"},{"key":"AU-Byford","latitude":"-32.22099","longitude":"116.009","name":"Byford"},{"key":"AU-Byron Bay","latitude":"-28.64989","longitude":"153.61246","name":"Byron Bay"},{"key":"AU-Cairns","latitude":"-16.92366","longitude":"145.76613","name":"Cairns"},{"key":"AU-Calamvale","latitude":"-10.58257","longitude":"113.65713","name":"Calamvale"},{"key":"AU-Calwell","latitude":"-10.58257","longitude":"113.65713","name":"Calwell"},{"key":"AU-Camberwell","latitude":"-37.84205","longitude":"145.0694","name":"Camberwell"},{"key":"AU-Cammeray","latitude":"-33.82132","longitude":"151.21609","name":"Cammeray"},{"key":"AU-Camp Hill","latitude":"-27.49354","longitude":"153.07629","name":"Camp Hill"},{"key":"AU-Campbelltown","latitude":"-34.88333","longitude":"138.66667","name":"Campbelltown"},{"key":"AU-Camperdown","latitude":"-33.88965","longitude":"151.17642","name":"Camperdown"},{"key":"AU-Campsie","latitude":"-33.9125","longitude":"151.10279","name":"Campsie"},{"key":"AU-Canberra","latitude":"-35.28346","longitude":"149.12807","name":"Canberra"},{"key":"AU-Canning Vale","latitude":"-32.05799","longitude":"115.91814","name":"Canning Vale"},{"key":"AU-Cannon Hill","latitude":"-27.47237","longitude":"153.09475","name":"Cannon Hill"},{"key":"AU-Canterbury","latitude":"-33.91192","longitude":"151.11862","name":"Canterbury"},{"key":"AU-Capalaba","latitude":"-10.58257","longitude":"113.65713","name":"Capalaba"},{"key":"AU-Cardigan","latitude":"-10.58257","longitude":"113.65713","name":"Cardigan"},{"key":"AU-Carina Heights","latitude":"-10.58257","longitude":"113.65713","name":"Carina Heights"},{"key":"AU-Carlingford","latitude":"-33.78269","longitude":"151.04888","name":"Carlingford"},{"key":"AU-Carlton","latitude":"-37.8","longitude":"144.96667","name":"Carlton"},{"key":"AU-Carlton North","latitude":"-37.78818","longitude":"144.97014","name":"Carlton North"},{"key":"AU-Carnegie","latitude":"-37.88333","longitude":"145.06667","name":"Carnegie"},{"key":"AU-Castle Hill","latitude":"-33.73333","longitude":"151","name":"Castle Hill"},{"key":"AU-Caulfield South","latitude":"-37.89562","longitude":"145.02597","name":"Caulfield South"},{"key":"AU-Cecil Hills","latitude":"-10.58257","longitude":"113.65713","name":"Cecil Hills"},{"key":"AU-Centenary Heights","latitude":"-10.58257","longitude":"113.65713","name":"Centenary Heights"},{"key":"AU-Chapel Hill","latitude":"-10.58257","longitude":"113.65713","name":"Chapel Hill"},{"key":"AU-Charlestown","latitude":"-32.95","longitude":"151.66667","name":"Charlestown"},{"key":"AU-Chatswood","latitude":"-33.8","longitude":"151.18333","name":"Chatswood"},{"key":"AU-Cheltenham","latitude":"-34.86667","longitude":"138.51667","name":"Cheltenham"},{"key":"AU-Chermside West","latitude":"-27.38383","longitude":"153.01586","name":"Chermside West"},{"key":"AU-Cherry Gardens","latitude":"-10.58257","longitude":"113.65713","name":"Cherry Gardens"},{"key":"AU-Cherrybrook","latitude":"-33.72197","longitude":"151.04607","name":"Cherrybrook"},{"key":"AU-Chester Hill","latitude":"-10.58257","longitude":"113.65713","name":"Chester Hill"},{"key":"AU-Chippendale","latitude":"-33.88673","longitude":"151.19745","name":"Chippendale"},{"key":"AU-Chipping Norton","latitude":"-33.9","longitude":"150.95","name":"Chipping Norton"},{"key":"AU-Chittaway Point","latitude":"-10.58257","longitude":"113.65713","name":"Chittaway Point"},{"key":"AU-Churchlands","latitude":"-10.58257","longitude":"113.65713","name":"Churchlands"},{"key":"AU-Claremont","latitude":"-31.97961","longitude":"115.7823","name":"Claremont"},{"key":"AU-Clayton South","latitude":"-37.93333","longitude":"145.11667","name":"Clayton South"},{"key":"AU-Coburg","latitude":"-37.75","longitude":"144.96667","name":"Coburg"},{"key":"AU-Collingwood","latitude":"-37.80253","longitude":"144.98872","name":"Collingwood"},{"key":"AU-Colyton","latitude":"-10.58257","longitude":"113.65713","name":"Colyton"},{"key":"AU-Como","latitude":"-33.99941","longitude":"151.06389","name":"Como"},{"key":"AU-Concord","latitude":"-33.84722","longitude":"151.10381","name":"Concord"},{"key":"AU-Cooks Hill","latitude":"-32.93244","longitude":"151.77114","name":"Cooks Hill"},{"key":"AU-Cooroy Mountain","latitude":"-10.58257","longitude":"113.65713","name":"Cooroy Mountain"},{"key":"AU-Coorparoo","latitude":"-27.49325","longitude":"153.05826","name":"Coorparoo"},{"key":"AU-Cottesloe","latitude":"-32","longitude":"115.76667","name":"Cottesloe"},{"key":"AU-Craigmore","latitude":"-10.58257","longitude":"113.65713","name":"Craigmore"},{"key":"AU-Cranbourne","latitude":"-38.11342","longitude":"145.28326","name":"Cranbourne"},{"key":"AU-Cremorne","latitude":"-37.83333","longitude":"145","name":"Cremorne"},{"key":"AU-Cronulla","latitude":"-34.06251","longitude":"151.14961","name":"Cronulla"},{"key":"AU-Crows Nest","latitude":"-33.82494","longitude":"151.20398","name":"Crows Nest"},{"key":"AU-Croydon","latitude":"-37.8","longitude":"145.28333","name":"Croydon"},{"key":"AU-Currambine","latitude":"-31.73306","longitude":"115.74766","name":"Currambine"},{"key":"AU-Dandenong","latitude":"-37.98333","longitude":"145.2","name":"Dandenong"},{"key":"AU-Darlinghurst","latitude":"-33.87939","longitude":"151.21925","name":"Darlinghurst"},{"key":"AU-Darlington","latitude":"-35.03333","longitude":"138.56667","name":"Darlington"},{"key":"AU-Darwin","latitude":"-12.46113","longitude":"130.84185","name":"Darwin"},{"key":"AU-Deception Bay","latitude":"-27.19354","longitude":"153.02631","name":"Deception Bay"},{"key":"AU-Deepdene","latitude":"-10.58257","longitude":"113.65713","name":"Deepdene"},{"key":"AU-Dianella","latitude":"-31.88822","longitude":"115.87186","name":"Dianella"},{"key":"AU-Docklands","latitude":"-37.8149","longitude":"144.95052","name":"Docklands"},{"key":"AU-Doncaster","latitude":"-37.78828","longitude":"145.12373","name":"Doncaster"},{"key":"AU-Doncaster East","latitude":"-37.78761","longitude":"145.14888","name":"Doncaster East"},{"key":"AU-Doolandella","latitude":"-10.58257","longitude":"113.65713","name":"Doolandella"},{"key":"AU-Doonside","latitude":"-33.76667","longitude":"150.86667","name":"Doonside"},{"key":"AU-Doubleview","latitude":"-10.58257","longitude":"113.65713","name":"Doubleview"},{"key":"AU-Dover Gardens","latitude":"-10.58257","longitude":"113.65713","name":"Dover Gardens"},{"key":"AU-Drummoyne","latitude":"-33.85237","longitude":"151.15491","name":"Drummoyne"},{"key":"AU-Dulwich Hill","latitude":"-33.9041","longitude":"151.13945","name":"Dulwich Hill"},{"key":"AU-Duncraig","latitude":"-31.83291","longitude":"115.7759","name":"Duncraig"},{"key":"AU-Earlwood","latitude":"-33.95","longitude":"151.1","name":"Earlwood"},{"key":"AU-East Cannington","latitude":"-32.0098","longitude":"115.95503","name":"East Cannington"},{"key":"AU-East Fremantle","latitude":"-32.03823","longitude":"115.7676","name":"East Fremantle"},{"key":"AU-East Malvern","latitude":"-10.58257","longitude":"113.65713","name":"East Malvern"},{"key":"AU-East Ryde","latitude":"-33.81031","longitude":"151.13153","name":"East Ryde"},{"key":"AU-East Victoria Park","latitude":"-31.98894","longitude":"115.90388","name":"East Victoria Park"},{"key":"AU-Edens Landing","latitude":"-10.58257","longitude":"113.65713","name":"Edens Landing"},{"key":"AU-Eight Mile Plains","latitude":"-27.58333","longitude":"153.1","name":"Eight Mile Plains"},{"key":"AU-Elizabeth","latitude":"-34.71944","longitude":"138.67707","name":"Elizabeth"},{"key":"AU-Elsternwick","latitude":"-37.88441","longitude":"145.00434","name":"Elsternwick"},{"key":"AU-Eltham","latitude":"-37.73333","longitude":"145.15","name":"Eltham"},{"key":"AU-Elwood","latitude":"-37.88214","longitude":"144.98215","name":"Elwood"},{"key":"AU-Essendon","latitude":"-37.76667","longitude":"144.91667","name":"Essendon"},{"key":"AU-Felixstow","latitude":"-10.58257","longitude":"113.65713","name":"Felixstow"},{"key":"AU-Ferntree Gully","latitude":"-37.88461","longitude":"145.29539","name":"Ferntree Gully"},{"key":"AU-Fig Tree Pocket","latitude":"-10.58257","longitude":"113.65713","name":"Fig Tree Pocket"},{"key":"AU-Flagstaff Hill","latitude":"-10.58257","longitude":"113.65713","name":"Flagstaff Hill"},{"key":"AU-Floreat","latitude":"-10.58257","longitude":"113.65713","name":"Floreat"},{"key":"AU-Footscray","latitude":"-37.8","longitude":"144.9","name":"Footscray"},{"key":"AU-Forest Lake","latitude":"-27.62563","longitude":"152.96883","name":"Forest Lake"},{"key":"AU-Forestville","latitude":"-33.76667","longitude":"151.20833","name":"Forestville"},{"key":"AU-Fortitude Valley","latitude":"-27.45706","longitude":"153.03178","name":"Fortitude Valley"},{"key":"AU-Frankston South","latitude":"-38.16604","longitude":"145.13643","name":"Frankston South"},{"key":"AU-Fremantle","latitude":"-32.05632","longitude":"115.74557","name":"Fremantle"},{"key":"AU-Garfield","latitude":"-38.08985","longitude":"145.67502","name":"Garfield"},{"key":"AU-Geelong","latitude":"-38.14711","longitude":"144.36069","name":"Geelong"},{"key":"AU-Gelorup","latitude":"-10.58257","longitude":"113.65713","name":"Gelorup"},{"key":"AU-Giralang","latitude":"-10.58257","longitude":"113.65713","name":"Giralang"},{"key":"AU-Gladesville","latitude":"-33.83333","longitude":"151.13333","name":"Gladesville"},{"key":"AU-Glebe","latitude":"-10.58257","longitude":"113.65713","name":"Glebe"},{"key":"AU-Glen Iris","latitude":"-33.33713","longitude":"115.6743","name":"Glen Iris"},{"key":"AU-Glen Waverley","latitude":"-10.58257","longitude":"113.65713","name":"Glen Waverley"},{"key":"AU-Glenelg","latitude":"-34.98079","longitude":"138.515","name":"Glenelg"},{"key":"AU-Glenelg South","latitude":"-10.58257","longitude":"113.65713","name":"Glenelg South"},{"key":"AU-Glenfield","latitude":"-33.96667","longitude":"150.9","name":"Glenfield"},{"key":"AU-Glenmore Park","latitude":"-33.79068","longitude":"150.6693","name":"Glenmore Park"},{"key":"AU-Glenroy","latitude":"-37.7","longitude":"144.93333","name":"Glenroy"},{"key":"AU-Glenwood","latitude":"-10.58257","longitude":"113.65713","name":"Glenwood"},{"key":"AU-Gooseberry Hill","latitude":"-31.95444","longitude":"116.0492","name":"Gooseberry Hill"},{"key":"AU-Gotham","latitude":"-10.58257","longitude":"113.65713","name":"Gotham"},{"key":"AU-Graceville","latitude":"-10.58257","longitude":"113.65713","name":"Graceville"},{"key":"AU-Granville","latitude":"-33.83333","longitude":"151.01667","name":"Granville"},{"key":"AU-Greenacre","latitude":"-10.58257","longitude":"113.65713","name":"Greenacre"},{"key":"AU-Greenslopes","latitude":"-27.50815","longitude":"153.04951","name":"Greenslopes"},{"key":"AU-Greenwich","latitude":"-33.83954","longitude":"151.183","name":"Greenwich"},{"key":"AU-Greenwith","latitude":"-10.58257","longitude":"113.65713","name":"Greenwith"},{"key":"AU-Guildford","latitude":"-31.9","longitude":"115.96667","name":"Guildford"},{"key":"AU-Gulfview Heights","latitude":"-10.58257","longitude":"113.65713","name":"Gulfview Heights"},{"key":"AU-Haberfield","latitude":"-33.88296","longitude":"151.14389","name":"Haberfield"},{"key":"AU-Halls Head","latitude":"-10.58257","longitude":"113.65713","name":"Halls Head"},{"key":"AU-Hamersley","latitude":"-10.58257","longitude":"113.65713","name":"Hamersley"},{"key":"AU-Hamilton","latitude":"-37.74425","longitude":"142.02202","name":"Hamilton"},{"key":"AU-Hampton","latitude":"-37.95","longitude":"145","name":"Hampton"},{"key":"AU-Hampton Park","latitude":"-38.03333","longitude":"145.25","name":"Hampton Park"},{"key":"AU-Harrington Park","latitude":"-10.58257","longitude":"113.65713","name":"Harrington Park"},{"key":"AU-Harrisdale","latitude":"-32.11084","longitude":"115.93563","name":"Harrisdale"},{"key":"AU-Hawthorn","latitude":"-37.81992","longitude":"145.0358","name":"Hawthorn"},{"key":"AU-Hazelbrook","latitude":"-33.72446","longitude":"150.45839","name":"Hazelbrook"},{"key":"AU-Helena Valley","latitude":"-10.58257","longitude":"113.65713","name":"Helena Valley"},{"key":"AU-Hendra","latitude":"-10.58257","longitude":"113.65713","name":"Hendra"},{"key":"AU-Highgate Hill","latitude":"-10.58257","longitude":"113.65713","name":"Highgate Hill"},{"key":"AU-Hillarys","latitude":"-31.80698","longitude":"115.74045","name":"Hillarys"},{"key":"AU-Hindmarsh","latitude":"-10.58257","longitude":"113.65713","name":"Hindmarsh"},{"key":"AU-Hobart","latitude":"-42.87936","longitude":"147.32941","name":"Hobart"},{"key":"AU-Hocking","latitude":"-10.58257","longitude":"113.65713","name":"Hocking"},{"key":"AU-Holland Park West","latitude":"-10.58257","longitude":"113.65713","name":"Holland Park West"},{"key":"AU-Hornsby","latitude":"-33.70244","longitude":"151.09931","name":"Hornsby"},{"key":"AU-Hurlstone Park","latitude":"-10.58257","longitude":"113.65713","name":"Hurlstone Park"},{"key":"AU-Inala","latitude":"-27.59715","longitude":"152.97432","name":"Inala"},{"key":"AU-Indooroopilly","latitude":"-10.58257","longitude":"113.65713","name":"Indooroopilly"},{"key":"AU-Innaloo","latitude":"-31.89272","longitude":"115.79508","name":"Innaloo"},{"key":"AU-Isabella Plains","latitude":"-10.58257","longitude":"113.65713","name":"Isabella Plains"},{"key":"AU-Jane Brook","latitude":"-10.58257","longitude":"113.65713","name":"Jane Brook"},{"key":"AU-Jannali","latitude":"-34.01643","longitude":"151.06065","name":"Jannali"},{"key":"AU-Jimboomba","latitude":"-10.58257","longitude":"113.65713","name":"Jimboomba"},{"key":"AU-Kallangur","latitude":"-10.58257","longitude":"113.65713","name":"Kallangur"},{"key":"AU-Kangaroo Point","latitude":"-10.58257","longitude":"113.65713","name":"Kangaroo Point"},{"key":"AU-Kearneys Spring","latitude":"-10.58257","longitude":"113.65713","name":"Kearneys Spring"},{"key":"AU-Kedron","latitude":"-10.58257","longitude":"113.65713","name":"Kedron"},{"key":"AU-Keilor East","latitude":"-37.73261","longitude":"144.86504","name":"Keilor East"},{"key":"AU-Kellyville","latitude":"-33.71028","longitude":"150.95095","name":"Kellyville"},{"key":"AU-Kelvin Grove","latitude":"-10.58257","longitude":"113.65713","name":"Kelvin Grove"},{"key":"AU-Kensington","latitude":"-33.92019","longitude":"151.22241","name":"Kensington"},{"key":"AU-Kensington and Norwood","latitude":"-10.58257","longitude":"113.65713","name":"Kensington and Norwood"},{"key":"AU-Kenwick","latitude":"-32.03333","longitude":"115.96667","name":"Kenwick"},{"key":"AU-Kew","latitude":"-37.80639","longitude":"145.03086","name":"Kew"},{"key":"AU-Kilburn","latitude":"-10.58257","longitude":"113.65713","name":"Kilburn"},{"key":"AU-Kings Langley","latitude":"-10.58257","longitude":"113.65713","name":"Kings Langley"},{"key":"AU-Kingsford","latitude":"-33.92399","longitude":"151.22749","name":"Kingsford"},{"key":"AU-Kingsville","latitude":"-37.80819","longitude":"144.87911","name":"Kingsville"},{"key":"AU-Klemzig","latitude":"-34.87928","longitude":"138.63562","name":"Klemzig"},{"key":"AU-Knoxfield","latitude":"-37.88978","longitude":"145.24962","name":"Knoxfield"},{"key":"AU-Lakemba","latitude":"-33.91972","longitude":"151.07592","name":"Lakemba"},{"key":"AU-Landsdale","latitude":"-10.58257","longitude":"113.65713","name":"Landsdale"},{"key":"AU-Lane Cove","latitude":"-33.8157","longitude":"151.16679","name":"Lane Cove"},{"key":"AU-Leederville","latitude":"-31.93628","longitude":"115.8419","name":"Leederville"},{"key":"AU-Leichhardt","latitude":"-33.88341","longitude":"151.15625","name":"Leichhardt"},{"key":"AU-Leongatha","latitude":"-10.58257","longitude":"113.65713","name":"Leongatha"},{"key":"AU-Leumeah","latitude":"-34.05","longitude":"150.83333","name":"Leumeah"},{"key":"AU-Lidcombe","latitude":"-33.86436","longitude":"151.0397","name":"Lidcombe"},{"key":"AU-Logan Reserve","latitude":"-27.72414","longitude":"153.09002","name":"Logan Reserve"},{"key":"AU-Long Jetty","latitude":"-33.35795","longitude":"151.48135","name":"Long Jetty"},{"key":"AU-Lugarno","latitude":"-33.98267","longitude":"151.04184","name":"Lugarno"},{"key":"AU-Lutwyche","latitude":"-10.58257","longitude":"113.65713","name":"Lutwyche"},{"key":"AU-Lynbrook","latitude":"-38.05588","longitude":"145.25615","name":"Lynbrook"},{"key":"AU-Mackay","latitude":"-21.15345","longitude":"149.16554","name":"Mackay"},{"key":"AU-Macleay Island","latitude":"-10.58257","longitude":"113.65713","name":"Macleay Island"},{"key":"AU-Malaga","latitude":"-10.58257","longitude":"113.65713","name":"Malaga"},{"key":"AU-Malvern","latitude":"-10.58257","longitude":"113.65713","name":"Malvern"},{"key":"AU-Mandurah","latitude":"-32.5269","longitude":"115.7217","name":"Mandurah"},{"key":"AU-Marion","latitude":"-35.00423","longitude":"138.55313","name":"Marion"},{"key":"AU-Maroochydore","latitude":"-10.58257","longitude":"113.65713","name":"Maroochydore"},{"key":"AU-Maroubra","latitude":"-33.95","longitude":"151.23333","name":"Maroubra"},{"key":"AU-Marrickville","latitude":"-33.90318","longitude":"151.15176","name":"Marrickville"},{"key":"AU-Marsfield","latitude":"-33.77784","longitude":"151.10574","name":"Marsfield"},{"key":"AU-Maryborough","latitude":"-37.04562","longitude":"143.73923","name":"Maryborough"},{"key":"AU-Mascot","latitude":"-33.92598","longitude":"151.19347","name":"Mascot"},{"key":"AU-Matraville","latitude":"-33.95","longitude":"151.23333","name":"Matraville"},{"key":"AU-Maudsland","latitude":"-10.58257","longitude":"113.65713","name":"Maudsland"},{"key":"AU-Mawson","latitude":"-10.58257","longitude":"113.65713","name":"Mawson"},{"key":"AU-Mawson Lakes","latitude":"-10.58257","longitude":"113.65713","name":"Mawson Lakes"},{"key":"AU-Maylands","latitude":"-31.93097","longitude":"115.89486","name":"Maylands"},{"key":"AU-McDowall","latitude":"-10.58257","longitude":"113.65713","name":"McDowall"},{"key":"AU-Melbourne","latitude":"-37.814","longitude":"144.96332","name":"Melbourne"},{"key":"AU-Melrose Park","latitude":"-10.58257","longitude":"113.65713","name":"Melrose Park"},{"key":"AU-Melton","latitude":"-37.68339","longitude":"144.58543","name":"Melton"},{"key":"AU-Middle Swan","latitude":"-31.85","longitude":"116.01667","name":"Middle Swan"},{"key":"AU-Mildura","latitude":"-34.18551","longitude":"142.16251","name":"Mildura"},{"key":"AU-Mile End","latitude":"-10.58257","longitude":"113.65713","name":"Mile End"},{"key":"AU-Minto","latitude":"-10.58257","longitude":"113.65713","name":"Minto"},{"key":"AU-Miranda","latitude":"-34.03857","longitude":"151.10005","name":"Miranda"},{"key":"AU-Moana","latitude":"-35.19394","longitude":"138.47614","name":"Moana"},{"key":"AU-Modbury","latitude":"-34.83333","longitude":"138.68333","name":"Modbury"},{"key":"AU-Modbury North","latitude":"-10.58257","longitude":"113.65713","name":"Modbury North"},{"key":"AU-Moonee Ponds","latitude":"-37.76667","longitude":"144.91667","name":"Moonee Ponds"},{"key":"AU-Moorebank","latitude":"-10.58257","longitude":"113.65713","name":"Moorebank"},{"key":"AU-Morley","latitude":"-10.58257","longitude":"113.65713","name":"Morley"},{"key":"AU-Morningside","latitude":"-27.46165","longitude":"153.07511","name":"Morningside"},{"key":"AU-Mornington","latitude":"-38.21792","longitude":"145.03876","name":"Mornington"},{"key":"AU-Morphett Vale","latitude":"-35.13333","longitude":"138.51667","name":"Morphett Vale"},{"key":"AU-Mortlake","latitude":"-10.58257","longitude":"113.65713","name":"Mortlake"},{"key":"AU-Morwell","latitude":"-38.23476","longitude":"146.39499","name":"Morwell"},{"key":"AU-Mosman","latitude":"-33.83902","longitude":"151.23956","name":"Mosman"},{"key":"AU-Mosman Park","latitude":"-32.00538","longitude":"115.7638","name":"Mosman Park"},{"key":"AU-Mount Barker","latitude":"-35.06667","longitude":"138.86667","name":"Mount Barker"},{"key":"AU-Mount Gravatt","latitude":"-10.58257","longitude":"113.65713","name":"Mount Gravatt"},{"key":"AU-Mount Hawthorn","latitude":"-10.58257","longitude":"113.65713","name":"Mount Hawthorn"},{"key":"AU-Mount Lawley","latitude":"-31.93439","longitude":"115.8716","name":"Mount Lawley"},{"key":"AU-Mount Low","latitude":"-10.58257","longitude":"113.65713","name":"Mount Low"},{"key":"AU-Mount Martha","latitude":"-38.26667","longitude":"145.01667","name":"Mount Martha"},{"key":"AU-Mount Waverley","latitude":"-37.87709","longitude":"145.12939","name":"Mount Waverley"},{"key":"AU-Mulgrave","latitude":"-37.91667","longitude":"145.2","name":"Mulgrave"},{"key":"AU-Munno Para West","latitude":"-10.58257","longitude":"113.65713","name":"Munno Para West"},{"key":"AU-Murrumba Downs","latitude":"-27.26733","longitude":"153.01053","name":"Murrumba Downs"},{"key":"AU-Nailsworth","latitude":"-10.58257","longitude":"113.65713","name":"Nailsworth"},{"key":"AU-Nakara","latitude":"-10.58257","longitude":"113.65713","name":"Nakara"},{"key":"AU-Narangba","latitude":"-27.20338","longitude":"152.95923","name":"Narangba"},{"key":"AU-Narre Warren","latitude":"-38.03333","longitude":"145.3","name":"Narre Warren"},{"key":"AU-Narre Warren South","latitude":"-38.04369","longitude":"145.2923","name":"Narre Warren South"},{"key":"AU-Nedlands","latitude":"-31.98184","longitude":"115.8073","name":"Nedlands"},{"key":"AU-Nerang","latitude":"-27.98941","longitude":"153.33633","name":"Nerang"},{"key":"AU-New Farm","latitude":"-10.58257","longitude":"113.65713","name":"New Farm"},{"key":"AU-Newcastle","latitude":"-32.92715","longitude":"151.77647","name":"Newcastle"},{"key":"AU-Newstead","latitude":"-41.43333","longitude":"147.16667","name":"Newstead"},{"key":"AU-Newtown","latitude":"-33.89835","longitude":"151.17754","name":"Newtown"},{"key":"AU-Nicholls","latitude":"-10.58257","longitude":"113.65713","name":"Nicholls"},{"key":"AU-Nightcliff","latitude":"-12.38299","longitude":"130.8517","name":"Nightcliff"},{"key":"AU-Nollamara","latitude":"-10.58257","longitude":"113.65713","name":"Nollamara"},{"key":"AU-Norman Park","latitude":"-10.58257","longitude":"113.65713","name":"Norman Park"},{"key":"AU-North Altona","latitude":"-10.58257","longitude":"113.65713","name":"North Altona"},{"key":"AU-North Bondi","latitude":"-33.88787","longitude":"151.28075","name":"North Bondi"},{"key":"AU-North Lakes","latitude":"-10.58257","longitude":"113.65713","name":"North Lakes"},{"key":"AU-North Plympton","latitude":"-10.58257","longitude":"113.65713","name":"North Plympton"},{"key":"AU-Northcote","latitude":"-37.76667","longitude":"145","name":"Northcote"},{"key":"AU-Nowergup","latitude":"-10.58257","longitude":"113.65713","name":"Nowergup"},{"key":"AU-Nudgee","latitude":"-10.58257","longitude":"113.65713","name":"Nudgee"},{"key":"AU-Nundah","latitude":"-10.58257","longitude":"113.65713","name":"Nundah"},{"key":"AU-Oaklands","latitude":"-10.58257","longitude":"113.65713","name":"Oaklands"},{"key":"AU-Oakleigh","latitude":"-10.58257","longitude":"113.65713","name":"Oakleigh"},{"key":"AU-Ormeau","latitude":"-10.58257","longitude":"113.65713","name":"Ormeau"},{"key":"AU-Ormiston","latitude":"-10.58257","longitude":"113.65713","name":"Ormiston"},{"key":"AU-Osborne Park","latitude":"-31.90066","longitude":"115.81083","name":"Osborne Park"},{"key":"AU-Oxley","latitude":"-10.58257","longitude":"113.65713","name":"Oxley"},{"key":"AU-Oyster Bay","latitude":"-34.00407","longitude":"151.07588","name":"Oyster Bay"},{"key":"AU-Paddington","latitude":"-33.88419","longitude":"151.23151","name":"Paddington"},{"key":"AU-Padstow","latitude":"-33.95687","longitude":"151.03191","name":"Padstow"},{"key":"AU-Pakenham","latitude":"-10.58257","longitude":"113.65713","name":"Pakenham"},{"key":"AU-Palmview","latitude":"-10.58257","longitude":"113.65713","name":"Palmview"},{"key":"AU-Panania","latitude":"-10.58257","longitude":"113.65713","name":"Panania"},{"key":"AU-Paralowie","latitude":"-34.75705","longitude":"138.60819","name":"Paralowie"},{"key":"AU-Parap","latitude":"-12.43054","longitude":"130.84142","name":"Parap"},{"key":"AU-Parkinson","latitude":"-10.58257","longitude":"113.65713","name":"Parkinson"},{"key":"AU-Parramatta","latitude":"-33.8178","longitude":"151.00348","name":"Parramatta"},{"key":"AU-Pascoe Vale South","latitude":"-37.73973","longitude":"144.94615","name":"Pascoe Vale South"},{"key":"AU-Pemulwuy","latitude":"-10.58257","longitude":"113.65713","name":"Pemulwuy"},{"key":"AU-Pendle Hill","latitude":"-10.58257","longitude":"113.65713","name":"Pendle Hill"},{"key":"AU-Pennant Hills","latitude":"-33.73783","longitude":"151.07216","name":"Pennant Hills"},{"key":"AU-Penrith","latitude":"-33.75","longitude":"150.7","name":"Penrith"},{"key":"AU-Perth","latitude":"-31.95224","longitude":"115.8614","name":"Perth"},{"key":"AU-Petersham","latitude":"-10.58257","longitude":"113.65713","name":"Petersham"},{"key":"AU-Pimpama","latitude":"-10.58257","longitude":"113.65713","name":"Pimpama"},{"key":"AU-Plympton","latitude":"-34.95","longitude":"138.55","name":"Plympton"},{"key":"AU-Pooraka","latitude":"-10.58257","longitude":"113.65713","name":"Pooraka"},{"key":"AU-Prahran","latitude":"-10.58257","longitude":"113.65713","name":"Prahran"},{"key":"AU-Prestons","latitude":"-33.94185","longitude":"150.8717","name":"Prestons"},{"key":"AU-Prospect","latitude":"-34.88241","longitude":"138.5933","name":"Prospect"},{"key":"AU-Pyrmont","latitude":"-10.58257","longitude":"113.65713","name":"Pyrmont"},{"key":"AU-Queens Park","latitude":"-32.00314","longitude":"115.94621","name":"Queens Park"},{"key":"AU-Redfern","latitude":"-33.89279","longitude":"151.20415","name":"Redfern"},{"key":"AU-Redland Bay","latitude":"-27.6113","longitude":"153.30022","name":"Redland Bay"},{"key":"AU-Reservoir","latitude":"-37.71667","longitude":"145","name":"Reservoir"},{"key":"AU-Rhodes","latitude":"-33.82663","longitude":"151.0881","name":"Rhodes"},{"key":"AU-Richmond","latitude":"-37.81819","longitude":"145.00176","name":"Richmond"},{"key":"AU-Ridgehaven","latitude":"-10.58257","longitude":"113.65713","name":"Ridgehaven"},{"key":"AU-Rivervale","latitude":"-31.95546","longitude":"115.91306","name":"Rivervale"},{"key":"AU-Rochedale","latitude":"-10.58257","longitude":"113.65713","name":"Rochedale"},{"key":"AU-Rochedale South","latitude":"-27.59521","longitude":"153.12332","name":"Rochedale South"},{"key":"AU-Rockhampton","latitude":"-23.38032","longitude":"150.50595","name":"Rockhampton"},{"key":"AU-Rooty Hill","latitude":"-10.58257","longitude":"113.65713","name":"Rooty Hill"},{"key":"AU-Rosebery","latitude":"-41.77941","longitude":"145.53825","name":"Rosebery"},{"key":"AU-Roselands","latitude":"-33.93317","longitude":"151.0732","name":"Roselands"},{"key":"AU-Rosewater","latitude":"-10.58257","longitude":"113.65713","name":"Rosewater"},{"key":"AU-Roseworthy","latitude":"-34.53397","longitude":"138.75023","name":"Roseworthy"},{"key":"AU-Rostrevor","latitude":"-10.58257","longitude":"113.65713","name":"Rostrevor"},{"key":"AU-Roxburgh Park","latitude":"-37.62581","longitude":"144.92555","name":"Roxburgh Park"},{"key":"AU-Royston Park","latitude":"-34.90045","longitude":"138.63605","name":"Royston Park"},{"key":"AU-Rozelle","latitude":"-10.58257","longitude":"113.65713","name":"Rozelle"},{"key":"AU-Runcorn","latitude":"-10.58257","longitude":"113.65713","name":"Runcorn"},{"key":"AU-Ryde","latitude":"-10.58257","longitude":"113.65713","name":"Ryde"},{"key":"AU-Saint Ives","latitude":"-10.58257","longitude":"113.65713","name":"Saint Ives"},{"key":"AU-Saint Marys","latitude":"-10.58257","longitude":"113.65713","name":"Saint Marys"},{"key":"AU-Salisbury","latitude":"-34.76667","longitude":"138.63333","name":"Salisbury"},{"key":"AU-Samford","latitude":"-10.58257","longitude":"113.65713","name":"Samford"},{"key":"AU-Scarborough","latitude":"-31.89578","longitude":"115.76431","name":"Scarborough"},{"key":"AU-Scoresby","latitude":"-37.9","longitude":"145.23333","name":"Scoresby"},{"key":"AU-Seaford","latitude":"-35.1898","longitude":"138.47589","name":"Seaford"},{"key":"AU-Seaforth","latitude":"-10.58257","longitude":"113.65713","name":"Seaforth"},{"key":"AU-Secret Harbour","latitude":"-32.40589","longitude":"115.75852","name":"Secret Harbour"},{"key":"AU-Seven Hills","latitude":"-27.48341","longitude":"153.07474","name":"Seven Hills"},{"key":"AU-Sinagra","latitude":"-31.74261","longitude":"115.80633","name":"Sinagra"},{"key":"AU-Somerville","latitude":"-38.21667","longitude":"145.16667","name":"Somerville"},{"key":"AU-South Hedland","latitude":"-10.58257","longitude":"113.65713","name":"South Hedland"},{"key":"AU-South Wentworthville","latitude":"-10.58257","longitude":"113.65713","name":"South Wentworthville"},{"key":"AU-South Yarra","latitude":"-10.58257","longitude":"113.65713","name":"South Yarra"},{"key":"AU-Southbank","latitude":"-37.8228","longitude":"144.96434","name":"Southbank"},{"key":"AU-Southern River","latitude":"-32.10658","longitude":"115.95896","name":"Southern River"},{"key":"AU-Southport","latitude":"-27.96724","longitude":"153.39796","name":"Southport"},{"key":"AU-Spring Hill","latitude":"-27.46141","longitude":"153.02311","name":"Spring Hill"},{"key":"AU-Springvale","latitude":"-37.94853","longitude":"145.15274","name":"Springvale"},{"key":"AU-St Agnes","latitude":"-10.58257","longitude":"113.65713","name":"St Agnes"},{"key":"AU-St Johns Park","latitude":"-10.58257","longitude":"113.65713","name":"St Johns Park"},{"key":"AU-St Morris","latitude":"-10.58257","longitude":"113.65713","name":"St Morris"},{"key":"AU-St Peters","latitude":"-10.58257","longitude":"113.65713","name":"St Peters"},{"key":"AU-Stanhope Gardens","latitude":"-33.72206","longitude":"150.92597","name":"Stanhope Gardens"},{"key":"AU-Stanmore","latitude":"-10.58257","longitude":"113.65713","name":"Stanmore"},{"key":"AU-Subiaco","latitude":"-31.9485","longitude":"115.8268","name":"Subiaco"},{"key":"AU-Summer Hill","latitude":"-33.89146","longitude":"151.13825","name":"Summer Hill"},{"key":"AU-Sunnybank","latitude":"-27.58333","longitude":"153.05","name":"Sunnybank"},{"key":"AU-Surry Hills","latitude":"-10.58257","longitude":"113.65713","name":"Surry Hills"},{"key":"AU-Swanbourne","latitude":"-31.96878","longitude":"115.7673","name":"Swanbourne"},{"key":"AU-Sydney","latitude":"-33.86785","longitude":"151.20732","name":"Sydney"},{"key":"AU-Tallarook","latitude":"-10.58257","longitude":"113.65713","name":"Tallarook"},{"key":"AU-Tamborine Mountain","latitude":"-27.96954","longitude":"153.19937","name":"Tamborine Mountain"},{"key":"AU-Taren Point","latitude":"-10.58257","longitude":"113.65713","name":"Taren Point"},{"key":"AU-Taringa","latitude":"-27.49061","longitude":"152.97861","name":"Taringa"},{"key":"AU-Tarragindi","latitude":"-27.53333","longitude":"153.03333","name":"Tarragindi"},{"key":"AU-Taylors Hill","latitude":"-37.70988","longitude":"144.75483","name":"Taylors Hill"},{"key":"AU-Teneriffe","latitude":"-10.58257","longitude":"113.65713","name":"Teneriffe"},{"key":"AU-The Rocks","latitude":"-10.58257","longitude":"113.65713","name":"The Rocks"},{"key":"AU-Thornlie","latitude":"-32.06003","longitude":"115.955","name":"Thornlie"},{"key":"AU-Tinana","latitude":"-10.58257","longitude":"113.65713","name":"Tinana"},{"key":"AU-Tingalpa","latitude":"-10.58257","longitude":"113.65713","name":"Tingalpa"},{"key":"AU-Tingira Heights","latitude":"-32.99725","longitude":"151.67021","name":"Tingira Heights"},{"key":"AU-Toongabbie","latitude":"-33.78333","longitude":"150.95","name":"Toongabbie"},{"key":"AU-Toorak","latitude":"-37.84165","longitude":"145.01438","name":"Toorak"},{"key":"AU-Toowong","latitude":"-10.58257","longitude":"113.65713","name":"Toowong"},{"key":"AU-Toowoomba","latitude":"-27.56056","longitude":"151.95386","name":"Toowoomba"},{"key":"AU-Townsville","latitude":"-19.26639","longitude":"146.80569","name":"Townsville"},{"key":"AU-Traralgon","latitude":"-38.19528","longitude":"146.5415","name":"Traralgon"},{"key":"AU-Tuart Hill","latitude":"-31.89808","longitude":"115.83495","name":"Tuart Hill"},{"key":"AU-Umina","latitude":"-33.52314","longitude":"151.31325","name":"Umina"},{"key":"AU-Unley","latitude":"-34.95","longitude":"138.6","name":"Unley"},{"key":"AU-Upper Coomera","latitude":"-27.9","longitude":"153.3","name":"Upper Coomera"},{"key":"AU-Victoria Point","latitude":"-27.58329","longitude":"153.31172","name":"Victoria Point"},{"key":"AU-Waikerie","latitude":"-34.18178","longitude":"139.98552","name":"Waikerie"},{"key":"AU-Wakerley","latitude":"-10.58257","longitude":"113.65713","name":"Wakerley"},{"key":"AU-Walkerville South","latitude":"-10.58257","longitude":"113.65713","name":"Walkerville South"},{"key":"AU-Walkley Heights","latitude":"-10.58257","longitude":"113.65713","name":"Walkley Heights"},{"key":"AU-Wamuran","latitude":"-10.58257","longitude":"113.65713","name":"Wamuran"},{"key":"AU-Warner","latitude":"-10.58257","longitude":"113.65713","name":"Warner"},{"key":"AU-Warriewood","latitude":"-33.68857","longitude":"151.29534","name":"Warriewood"},{"key":"AU-Wayville","latitude":"-34.95","longitude":"138.58333","name":"Wayville"},{"key":"AU-Wellard","latitude":"-32.26667","longitude":"115.83333","name":"Wellard"},{"key":"AU-Wellington Point","latitude":"-27.48333","longitude":"153.25","name":"Wellington Point"},{"key":"AU-Wembley","latitude":"-31.93333","longitude":"115.8","name":"Wembley"},{"key":"AU-Wentworth Point","latitude":"-10.58257","longitude":"113.65713","name":"Wentworth Point"},{"key":"AU-Wentworthville","latitude":"-10.58257","longitude":"113.65713","name":"Wentworthville"},{"key":"AU-West End","latitude":"-10.58257","longitude":"113.65713","name":"West End"},{"key":"AU-West Ryde","latitude":"-33.80543","longitude":"151.07386","name":"West Ryde"},{"key":"AU-Westleigh","latitude":"-10.58257","longitude":"113.65713","name":"Westleigh"},{"key":"AU-Wetherill Park","latitude":"-10.58257","longitude":"113.65713","name":"Wetherill Park"},{"key":"AU-Willetton","latitude":"-32.05251","longitude":"115.88782","name":"Willetton"},{"key":"AU-Willoughby","latitude":"-10.58257","longitude":"113.65713","name":"Willoughby"},{"key":"AU-Windsor","latitude":"-37.85344","longitude":"144.99241","name":"Windsor"},{"key":"AU-Winston Hills","latitude":"-10.58257","longitude":"113.65713","name":"Winston Hills"},{"key":"AU-Wishart","latitude":"-10.58257","longitude":"113.65713","name":"Wishart"},{"key":"AU-Wollongong","latitude":"-34.424","longitude":"150.89345","name":"Wollongong"},{"key":"AU-Wollstonecraft","latitude":"-33.8328","longitude":"151.18981","name":"Wollstonecraft"},{"key":"AU-Woodend","latitude":"-10.58257","longitude":"113.65713","name":"Woodend"},{"key":"AU-Woodville","latitude":"-34.88333","longitude":"138.55","name":"Woodville"},{"key":"AU-Woolloomooloo","latitude":"-10.58257","longitude":"113.65713","name":"Woolloomooloo"},{"key":"AU-Woolloongabba","latitude":"-27.48855","longitude":"153.03655","name":"Woolloongabba"},{"key":"AU-Wynnum","latitude":"-27.44527","longitude":"153.15813","name":"Wynnum"},{"key":"AU-Yagoona","latitude":"-33.9049","longitude":"151.01996","name":"Yagoona"},{"key":"AU-Yarrabilba","latitude":"-10.58257","longitude":"113.65713","name":"Yarrabilba"},{"key":"AU-Yarralumla","latitude":"-10.58257","longitude":"113.65713","name":"Yarralumla"},{"key":"AU-Yowie Bay","latitude":"-10.58257","longitude":"113.65713","name":"Yowie Bay"},{"key":"AU-Zillmere","latitude":"-27.35591","longitude":"153.04453","name":"Zillmere"},{"key":"AT-Fuegen","latitude":"46.51667","longitude":"10.01646","name":"Fuegen"},{"key":"AT-Gotham","latitude":"46.51667","longitude":"10.01646","name":"Gotham"},{"key":"AT-Hadersdorf am Kamp","latitude":"48.45","longitude":"15.71667","name":"Hadersdorf am Kamp"},{"key":"AT-Klagenfurt","latitude":"46.51667","longitude":"10.01646","name":"Klagenfurt"},{"key":"AT-Salzburg","latitude":"47.79941","longitude":"13.04399","name":"Salzburg"},{"key":"AT-Vienna","latitude":"48.20849","longitude":"16.37208","name":"Vienna"},{"key":"BD-Dhaka","latitude":"23.7104","longitude":"90.40744","name":"Dhaka"},{"key":"BB-Bridgetown","latitude":"13.10732","longitude":"-59.62021","name":"Bridgetown"},{"key":"BB-Gotham","latitude":"13.07067","longitude":"-59.44861","name":"Gotham"},{"key":"BB-Warrens","latitude":"13.07067","longitude":"-59.44861","name":"Warrens"},{"key":"BE-Aalst","latitude":"50.93604","longitude":"4.0355","name":"Aalst"},{"key":"BE-Anderlecht","latitude":"49.53771","longitude":"2.59368","name":"Anderlecht"},{"key":"BE-Ans","latitude":"50.6623","longitude":"5.52029","name":"Ans"},{"key":"BE-Antwerp","latitude":"49.53771","longitude":"2.59368","name":"Antwerp"},{"key":"BE-Asse","latitude":"50.91011","longitude":"4.19836","name":"Asse"},{"key":"BE-Assebroek","latitude":"49.53771","longitude":"2.59368","name":"Assebroek"},{"key":"BE-Auderghem","latitude":"49.53771","longitude":"2.59368","name":"Auderghem"},{"key":"BE-Averbode","latitude":"49.53771","longitude":"2.59368","name":"Averbode"},{"key":"BE-Battice","latitude":"49.53771","longitude":"2.59368","name":"Battice"},{"key":"BE-Baudour","latitude":"49.53771","longitude":"2.59368","name":"Baudour"},{"key":"BE-Beloeil","latitude":"50.55047","longitude":"3.73484","name":"Beloeil"},{"key":"BE-Berchem","latitude":"49.53771","longitude":"2.59368","name":"Berchem"},{"key":"BE-Beverst","latitude":"49.53771","longitude":"2.59368","name":"Beverst"},{"key":"BE-Bierbeek","latitude":"50.82876","longitude":"4.75949","name":"Bierbeek"},{"key":"BE-Blanden","latitude":"49.53771","longitude":"2.59368","name":"Blanden"},{"key":"BE-Blankenberge","latitude":"51.31306","longitude":"3.13227","name":"Blankenberge"},{"key":"BE-Bleid","latitude":"49.53771","longitude":"2.59368","name":"Bleid"},{"key":"BE-Boekhoute","latitude":"49.53771","longitude":"2.59368","name":"Boekhoute"},{"key":"BE-Bois-d'Haine","latitude":"49.53771","longitude":"2.59368","name":"Bois-d'Haine"},{"key":"BE-Boutersem","latitude":"50.83511","longitude":"4.8345","name":"Boutersem"},{"key":"BE-Brasschaat","latitude":"51.2912","longitude":"4.49182","name":"Brasschaat"},{"key":"BE-Brecht","latitude":"51.35024","longitude":"4.63829","name":"Brecht"},{"key":"BE-Bruges","latitude":"49.53771","longitude":"2.59368","name":"Bruges"},{"key":"BE-Brussels","latitude":"50.85045","longitude":"4.34878","name":"Brussels"},{"key":"BE-Carnieres","latitude":"49.53771","longitude":"2.59368","name":"Carnieres"},{"key":"BE-Chastre","latitude":"49.53771","longitude":"2.59368","name":"Chastre"},{"key":"BE-Chatelet","latitude":"49.53771","longitude":"2.59368","name":"Chatelet"},{"key":"BE-Comines","latitude":"49.53771","longitude":"2.59368","name":"Comines"},{"key":"BE-Couvin","latitude":"50.05284","longitude":"4.49495","name":"Couvin"},{"key":"BE-Damme","latitude":"51.25147","longitude":"3.28144","name":"Damme"},{"key":"BE-Deerlijk","latitude":"50.85337","longitude":"3.35416","name":"Deerlijk"},{"key":"BE-Deinze","latitude":"50.98175","longitude":"3.53096","name":"Deinze"},{"key":"BE-Dendermonde","latitude":"51.02869","longitude":"4.10106","name":"Dendermonde"},{"key":"BE-Diegem","latitude":"50.89727","longitude":"4.43354","name":"Diegem"},{"key":"BE-Diepenbeek","latitude":"50.90769","longitude":"5.41875","name":"Diepenbeek"},{"key":"BE-Diest","latitude":"50.98923","longitude":"5.05062","name":"Diest"},{"key":"BE-Dilbeek","latitude":"50.84799","longitude":"4.25972","name":"Dilbeek"},{"key":"BE-Dilsen-Stokkem","latitude":"49.53771","longitude":"2.59368","name":"Dilsen-Stokkem"},{"key":"BE-Ecaussinnes-d'Enghien","latitude":"49.53771","longitude":"2.59368","name":"Ecaussinnes-d'Enghien"},{"key":"BE-Edegem","latitude":"51.15662","longitude":"4.44504","name":"Edegem"},{"key":"BE-Eeklo","latitude":"51.18703","longitude":"3.55654","name":"Eeklo"},{"key":"BE-Eine","latitude":"49.53771","longitude":"2.59368","name":"Eine"},{"key":"BE-Eke","latitude":"49.53771","longitude":"2.59368","name":"Eke"},{"key":"BE-Erpe","latitude":"49.53771","longitude":"2.59368","name":"Erpe"},{"key":"BE-Essen","latitude":"51.46791","longitude":"4.46901","name":"Essen"},{"key":"BE-Etikhove","latitude":"49.53771","longitude":"2.59368","name":"Etikhove"},{"key":"BE-Etterbeek","latitude":"49.53771","longitude":"2.59368","name":"Etterbeek"},{"key":"BE-Evergem","latitude":"51.10529","longitude":"3.704","name":"Evergem"},{"key":"BE-Gavere","latitude":"50.92917","longitude":"3.66184","name":"Gavere"},{"key":"BE-Gembloux","latitude":"50.56149","longitude":"4.69889","name":"Gembloux"},{"key":"BE-Genk","latitude":"50.965","longitude":"5.50082","name":"Genk"},{"key":"BE-Gentbrugge","latitude":"49.53771","longitude":"2.59368","name":"Gentbrugge"},{"key":"BE-Gesves","latitude":"50.40146","longitude":"5.07457","name":"Gesves"},{"key":"BE-Ghent","latitude":"49.53771","longitude":"2.59368","name":"Ghent"},{"key":"BE-Ghoy","latitude":"49.53771","longitude":"2.59368","name":"Ghoy"},{"key":"BE-Gotham","latitude":"49.53771","longitude":"2.59368","name":"Gotham"},{"key":"BE-Grimbergen","latitude":"50.93409","longitude":"4.37213","name":"Grimbergen"},{"key":"BE-Halle","latitude":"50.73385","longitude":"4.23454","name":"Halle"},{"key":"BE-Hasselt","latitude":"50.93106","longitude":"5.33781","name":"Hasselt"},{"key":"BE-Herent","latitude":"50.90861","longitude":"4.67056","name":"Herent"},{"key":"BE-Herentals","latitude":"51.17655","longitude":"4.83248","name":"Herentals"},{"key":"BE-Herne","latitude":"50.72423","longitude":"4.03481","name":"Herne"},{"key":"BE-Hoboken","latitude":"51.17611","longitude":"4.34844","name":"Hoboken"},{"key":"BE-Hoeilaart","latitude":"50.7673","longitude":"4.46835","name":"Hoeilaart"},{"key":"BE-Hoeselt","latitude":"50.84714","longitude":"5.48767","name":"Hoeselt"},{"key":"BE-Hofstade","latitude":"49.53771","longitude":"2.59368","name":"Hofstade"},{"key":"BE-Hulshout","latitude":"51.07451","longitude":"4.79081","name":"Hulshout"},{"key":"BE-Ixelles-Elsene","latitude":"49.53771","longitude":"2.59368","name":"Ixelles-Elsene"},{"key":"BE-Kapelle-op-den-Bos","latitude":"51.0097","longitude":"4.36303","name":"Kapelle-op-den-Bos"},{"key":"BE-Keerbergen","latitude":"51.00295","longitude":"4.63434","name":"Keerbergen"},{"key":"BE-Kontich","latitude":"51.13213","longitude":"4.44706","name":"Kontich"},{"key":"BE-Kortenberg","latitude":"50.88982","longitude":"4.54353","name":"Kortenberg"},{"key":"BE-Kruibeke","latitude":"51.17048","longitude":"4.31444","name":"Kruibeke"},{"key":"BE-Kruishoutem","latitude":"50.90168","longitude":"3.52588","name":"Kruishoutem"},{"key":"BE-Leopoldsburg","latitude":"51.11667","longitude":"5.25","name":"Leopoldsburg"},{"key":"BE-Leuven","latitude":"50.87959","longitude":"4.70093","name":"Leuven"},{"key":"BE-Liedekerke","latitude":"50.86892","longitude":"4.08743","name":"Liedekerke"},{"key":"BE-Liège","latitude":"50.63373","longitude":"5.56749","name":"Liège"},{"key":"BE-Lissewege","latitude":"49.53771","longitude":"2.59368","name":"Lissewege"},{"key":"BE-Lodelinsart","latitude":"49.53771","longitude":"2.59368","name":"Lodelinsart"},{"key":"BE-Lonzee","latitude":"49.53771","longitude":"2.59368","name":"Lonzee"},{"key":"BE-Louvain-la-Neuve","latitude":"50.66829","longitude":"4.61443","name":"Louvain-la-Neuve"},{"key":"BE-Maasmechelen","latitude":"50.96545","longitude":"5.69452","name":"Maasmechelen"},{"key":"BE-Malmedy","latitude":"49.53771","longitude":"2.59368","name":"Malmedy"},{"key":"BE-Mechelen","latitude":"51.02574","longitude":"4.47762","name":"Mechelen"},{"key":"BE-Meeuwen","latitude":"49.53771","longitude":"2.59368","name":"Meeuwen"},{"key":"BE-Meise","latitude":"50.93934","longitude":"4.32655","name":"Meise"},{"key":"BE-Montignies-sur-Sambre","latitude":"49.53771","longitude":"2.59368","name":"Montignies-sur-Sambre"},{"key":"BE-Mortsel","latitude":"51.16697","longitude":"4.45127","name":"Mortsel"},{"key":"BE-Nazareth","latitude":"50.95686","longitude":"3.59425","name":"Nazareth"},{"key":"BE-Neigem","latitude":"49.53771","longitude":"2.59368","name":"Neigem"},{"key":"BE-Nivelles","latitude":"50.59833","longitude":"4.32848","name":"Nivelles"},{"key":"BE-Oedelem","latitude":"49.53771","longitude":"2.59368","name":"Oedelem"},{"key":"BE-Ohain","latitude":"49.53771","longitude":"2.59368","name":"Ohain"},{"key":"BE-Oostrozebeke","latitude":"50.92093","longitude":"3.33799","name":"Oostrozebeke"},{"key":"BE-Ophasselt","latitude":"49.53771","longitude":"2.59368","name":"Ophasselt"},{"key":"BE-Ostend","latitude":"51.21551","longitude":"2.927","name":"Ostend"},{"key":"BE-Ottignies","latitude":"50.66535","longitude":"4.56679","name":"Ottignies"},{"key":"BE-Ottignies-Louvain-la-Neuve","latitude":"49.53771","longitude":"2.59368","name":"Ottignies-Louvain-la-Neuve"},{"key":"BE-Oudenaarde","latitude":"50.85168","longitude":"3.60891","name":"Oudenaarde"},{"key":"BE-Overpelt","latitude":"51.21038","longitude":"5.41557","name":"Overpelt"},{"key":"BE-Pulderbos","latitude":"49.53771","longitude":"2.59368","name":"Pulderbos"},{"key":"BE-Quevaucamps","latitude":"49.53771","longitude":"2.59368","name":"Quevaucamps"},{"key":"BE-Ravels","latitude":"51.37274","longitude":"4.9921","name":"Ravels"},{"key":"BE-Riemst","latitude":"50.80995","longitude":"5.60131","name":"Riemst"},{"key":"BE-Rijmenam","latitude":"49.53771","longitude":"2.59368","name":"Rijmenam"},{"key":"BE-Roeselare","latitude":"50.94653","longitude":"3.12269","name":"Roeselare"},{"key":"BE-Roly","latitude":"49.53771","longitude":"2.59368","name":"Roly"},{"key":"BE-Ronse","latitude":"50.74574","longitude":"3.6005","name":"Ronse"},{"key":"BE-Schelle","latitude":"51.12615","longitude":"4.34114","name":"Schelle"},{"key":"BE-Sint-Gillis-Waas","latitude":"51.21914","longitude":"4.12374","name":"Sint-Gillis-Waas"},{"key":"BE-Sint-Kornelis-Horebeke","latitude":"49.53771","longitude":"2.59368","name":"Sint-Kornelis-Horebeke"},{"key":"BE-Sint-Lievens-Houtem","latitude":"50.9197","longitude":"3.86225","name":"Sint-Lievens-Houtem"},{"key":"BE-Sint-Maria-Horebeke","latitude":"49.53771","longitude":"2.59368","name":"Sint-Maria-Horebeke"},{"key":"BE-Sint-Niklaas","latitude":"51.16509","longitude":"4.1437","name":"Sint-Niklaas"},{"key":"BE-Sleidinge","latitude":"49.53771","longitude":"2.59368","name":"Sleidinge"},{"key":"BE-Strombeek-Bever","latitude":"49.53771","longitude":"2.59368","name":"Strombeek-Bever"},{"key":"BE-Temse","latitude":"51.12794","longitude":"4.21372","name":"Temse"},{"key":"BE-Tielt","latitude":"50.99931","longitude":"3.32707","name":"Tielt"},{"key":"BE-Tielt-Winge","latitude":"49.53771","longitude":"2.59368","name":"Tielt-Winge"},{"key":"BE-Torhout","latitude":"51.0656","longitude":"3.10085","name":"Torhout"},{"key":"BE-Tournai","latitude":"50.60715","longitude":"3.38932","name":"Tournai"},{"key":"BE-Turnhout","latitude":"51.32254","longitude":"4.94471","name":"Turnhout"},{"key":"BE-Uccle","latitude":"49.53771","longitude":"2.59368","name":"Uccle"},{"key":"BE-Uikhoven","latitude":"49.53771","longitude":"2.59368","name":"Uikhoven"},{"key":"BE-Vissenaken","latitude":"49.53771","longitude":"2.59368","name":"Vissenaken"},{"key":"BE-Waregem","latitude":"50.88898","longitude":"3.42756","name":"Waregem"},{"key":"BE-Westerlo","latitude":"51.09049","longitude":"4.91544","name":"Westerlo"},{"key":"BE-Wilrijk","latitude":"49.53771","longitude":"2.59368","name":"Wilrijk"},{"key":"BE-Wortegem","latitude":"49.53771","longitude":"2.59368","name":"Wortegem"},{"key":"BE-Ypres","latitude":"49.53771","longitude":"2.59368","name":"Ypres"},{"key":"BE-Zaventem","latitude":"50.88365","longitude":"4.47298","name":"Zaventem"},{"key":"BE-Zichem","latitude":"49.53771","longitude":"2.59368","name":"Zichem"},{"key":"BE-Zoersel","latitude":"51.26825","longitude":"4.71296","name":"Zoersel"},{"key":"BE-Zottegem","latitude":"50.86955","longitude":"3.81052","name":"Zottegem"},{"key":"BE-Zulte","latitude":"50.91954","longitude":"3.44859","name":"Zulte"},{"key":"BE-Zwalm","latitude":"49.53771","longitude":"2.59368","name":"Zwalm"},{"key":"BA-Banja Luka","latitude":"44.77842","longitude":"17.19386","name":"Banja Luka"},{"key":"BR-Betim","latitude":"-19.96778","longitude":"-44.19833","name":"Betim"},{"key":"BR-Blumenau","latitude":"-26.91944","longitude":"-49.06611","name":"Blumenau"},{"key":"BR-Cabo Frio","latitude":"-22.88717","longitude":"-42.02622","name":"Cabo Frio"},{"key":"BR-Canoas","latitude":"-29.91778","longitude":"-51.18361","name":"Canoas"},{"key":"BR-Gotham","latitude":"0.03889","longitude":"-32.41083","name":"Gotham"},{"key":"BR-Itatiba","latitude":"-23.00583","longitude":"-46.83889","name":"Itatiba"},{"key":"BR-Niterói","latitude":"-22.88333","longitude":"-43.10361","name":"Niterói"},{"key":"BR-Paraiba do Sul","latitude":"0.03889","longitude":"-32.41083","name":"Paraiba do Sul"},{"key":"BR-Rio de Janeiro","latitude":"-22.90642","longitude":"-43.18223","name":"Rio de Janeiro"},{"key":"BR-Salvador","latitude":"-12.97111","longitude":"-38.51083","name":"Salvador"},{"key":"BR-São Paulo","latitude":"-23.5475","longitude":"-46.63611","name":"São Paulo"},{"key":"BR-Sarzedo","latitude":"-20.03528","longitude":"-44.14472","name":"Sarzedo"},{"key":"KH-Gotham","latitude":"10.48291","longitude":"102.37574","name":"Gotham"},{"key":"KH-Phnom Penh","latitude":"11.56245","longitude":"104.91601","name":"Phnom Penh"},{"key":"KH-Siem Reab","latitude":"10.48291","longitude":"102.37574","name":"Siem Reab"},{"key":"CA-Abbotsford","latitude":"49.05798","longitude":"-122.25257","name":"Abbotsford"},{"key":"CA-Ajax","latitude":"43.85012","longitude":"-79.03288","name":"Ajax"},{"key":"CA-Alliston","latitude":"42.11679","longitude":"-100.05023","name":"Alliston"},{"key":"CA-Angus","latitude":"44.31681","longitude":"-79.88295","name":"Angus"},{"key":"CA-Antigonish","latitude":"45.61685","longitude":"-61.99858","name":"Antigonish"},{"key":"CA-Beaconsfield","latitude":"45.43341","longitude":"-73.86586","name":"Beaconsfield"},{"key":"CA-Beauharnois","latitude":"45.31341","longitude":"-73.8725","name":"Beauharnois"},{"key":"CA-Beloeil","latitude":"45.56839","longitude":"-73.20568","name":"Beloeil"},{"key":"CA-Bluffton","latitude":"42.11679","longitude":"-100.05023","name":"Bluffton"},{"key":"CA-Boisbriand","latitude":"45.61678","longitude":"-73.83249","name":"Boisbriand"},{"key":"CA-Bolton","latitude":"42.11679","longitude":"-100.05023","name":"Bolton"},{"key":"CA-Boucherville","latitude":"45.59104","longitude":"-73.43605","name":"Boucherville"},{"key":"CA-Bowmanville","latitude":"42.11679","longitude":"-100.05023","name":"Bowmanville"},{"key":"CA-Brampton","latitude":"43.68341","longitude":"-79.76633","name":"Brampton"},{"key":"CA-Brandon","latitude":"49.84692","longitude":"-99.95306","name":"Brandon"},{"key":"CA-Burlington","latitude":"43.38621","longitude":"-79.83713","name":"Burlington"},{"key":"CA-Burnaby","latitude":"49.26636","longitude":"-122.95263","name":"Burnaby"},{"key":"CA-Calgary","latitude":"51.05011","longitude":"-114.08529","name":"Calgary"},{"key":"CA-Champion","latitude":"42.11679","longitude":"-100.05023","name":"Champion"},{"key":"CA-Chilliwack","latitude":"49.16638","longitude":"-121.95257","name":"Chilliwack"},{"key":"CA-Claresholm","latitude":"50.03332","longitude":"-113.58524","name":"Claresholm"},{"key":"CA-Cochrane","latitude":"51.18341","longitude":"-114.46871","name":"Cochrane"},{"key":"CA-Cold Lake","latitude":"54.46525","longitude":"-110.18154","name":"Cold Lake"},{"key":"CA-Collingwood","latitude":"44.4834","longitude":"-80.21638","name":"Collingwood"},{"key":"CA-Concord","latitude":"43.80011","longitude":"-79.48291","name":"Concord"},{"key":"CA-Coquitlam","latitude":"49.28297","longitude":"-122.75262","name":"Coquitlam"},{"key":"CA-Corbeil","latitude":"42.11679","longitude":"-100.05023","name":"Corbeil"},{"key":"CA-Cornwall","latitude":"46.22652","longitude":"-63.21809","name":"Cornwall"},{"key":"CA-Courtenay","latitude":"49.68657","longitude":"-124.9936","name":"Courtenay"},{"key":"CA-Cranbrook","latitude":"49.49991","longitude":"-115.76879","name":"Cranbrook"},{"key":"CA-Dartmouth","latitude":"44.67134","longitude":"-63.57719","name":"Dartmouth"},{"key":"CA-Dauphin","latitude":"51.14941","longitude":"-100.05023","name":"Dauphin"},{"key":"CA-Delta","latitude":"49.14399","longitude":"-122.9068","name":"Delta"},{"key":"CA-Dillon","latitude":"42.11679","longitude":"-100.05023","name":"Dillon"},{"key":"CA-Dollard-des-Ormeaux","latitude":"42.11679","longitude":"-100.05023","name":"Dollard-des-Ormeaux"},{"key":"CA-Duncan","latitude":"48.78293","longitude":"-123.70266","name":"Duncan"},{"key":"CA-Edmonton","latitude":"53.55014","longitude":"-113.46871","name":"Edmonton"},{"key":"CA-Elliot Lake","latitude":"46.38336","longitude":"-82.63315","name":"Elliot Lake"},{"key":"CA-Enfield","latitude":"42.11679","longitude":"-100.05023","name":"Enfield"},{"key":"CA-Eston","latitude":"42.11679","longitude":"-100.05023","name":"Eston"},{"key":"CA-Etobicoke","latitude":"43.65421","longitude":"-79.56711","name":"Etobicoke"},{"key":"CA-Evansburg","latitude":"42.11679","longitude":"-100.05023","name":"Evansburg"},{"key":"CA-Fort St. James","latitude":"42.11679","longitude":"-100.05023","name":"Fort St. James"},{"key":"CA-Fredericton","latitude":"45.94541","longitude":"-66.66558","name":"Fredericton"},{"key":"CA-Garden Bay","latitude":"42.11679","longitude":"-100.05023","name":"Garden Bay"},{"key":"CA-Gatineau","latitude":"45.47723","longitude":"-75.70164","name":"Gatineau"},{"key":"CA-Georgetown","latitude":"42.11679","longitude":"-100.05023","name":"Georgetown"},{"key":"CA-Gotham","latitude":"42.11679","longitude":"-100.05023","name":"Gotham"},{"key":"CA-Grafton","latitude":"42.11679","longitude":"-100.05023","name":"Grafton"},{"key":"CA-Granby","latitude":"45.40008","longitude":"-72.73243","name":"Granby"},{"key":"CA-Greater Sudbury","latitude":"46.49","longitude":"-80.99001","name":"Greater Sudbury"},{"key":"CA-Haliburton","latitude":"42.11679","longitude":"-100.05023","name":"Haliburton"},{"key":"CA-Halifax","latitude":"44.64533","longitude":"-63.57239","name":"Halifax"},{"key":"CA-Hamilton","latitude":"43.25011","longitude":"-79.84963","name":"Hamilton"},{"key":"CA-Hampton","latitude":"45.52876","longitude":"-65.85354","name":"Hampton"},{"key":"CA-Hazelton","latitude":"42.11679","longitude":"-100.05023","name":"Hazelton"},{"key":"CA-Holyrood","latitude":"42.11679","longitude":"-100.05023","name":"Holyrood"},{"key":"CA-Innisfil","latitude":"44.30011","longitude":"-79.64964","name":"Innisfil"},{"key":"CA-Jonquiere","latitude":"42.11679","longitude":"-100.05023","name":"Jonquiere"},{"key":"CA-Kanata","latitude":"42.11679","longitude":"-100.05023","name":"Kanata"},{"key":"CA-Kelowna","latitude":"49.88307","longitude":"-119.48568","name":"Kelowna"},{"key":"CA-Kemptville","latitude":"42.11679","longitude":"-100.05023","name":"Kemptville"},{"key":"CA-Kentville","latitude":"45.0771","longitude":"-64.49605","name":"Kentville"},{"key":"CA-Kindersley","latitude":"51.46681","longitude":"-109.16818","name":"Kindersley"},{"key":"CA-Kingston","latitude":"44.22976","longitude":"-76.48098","name":"Kingston"},{"key":"CA-Kirkland","latitude":"45.45008","longitude":"-73.86586","name":"Kirkland"},{"key":"CA-Kitchener","latitude":"43.42537","longitude":"-80.5112","name":"Kitchener"},{"key":"CA-La Broquerie","latitude":"49.51688","longitude":"-96.50029","name":"La Broquerie"},{"key":"CA-Lake Country","latitude":"42.11679","longitude":"-100.05023","name":"Lake Country"},{"key":"CA-Langham","latitude":"52.3668","longitude":"-106.96793","name":"Langham"},{"key":"CA-Laval","latitude":"45.56995","longitude":"-73.692","name":"Laval"},{"key":"CA-Lethbridge","latitude":"49.69999","longitude":"-112.81856","name":"Lethbridge"},{"key":"CA-Little Bay East","latitude":"42.11679","longitude":"-100.05023","name":"Little Bay East"},{"key":"CA-Lloydminster","latitude":"53.27237","longitude":"-110.02256","name":"Lloydminster"},{"key":"CA-London","latitude":"42.98339","longitude":"-81.23304","name":"London"},{"key":"CA-Lucan","latitude":"42.11679","longitude":"-100.05023","name":"Lucan"},{"key":"CA-Maple","latitude":"42.11679","longitude":"-100.05023","name":"Maple"},{"key":"CA-Maple Ridge","latitude":"53.50172","longitude":"-113.36274","name":"Maple Ridge"},{"key":"CA-Markham","latitude":"43.86682","longitude":"-79.2663","name":"Markham"},{"key":"CA-Medicine Hat","latitude":"50.03928","longitude":"-110.67661","name":"Medicine Hat"},{"key":"CA-Milton","latitude":"43.51681","longitude":"-79.88294","name":"Milton"},{"key":"CA-Mississauga","latitude":"43.5789","longitude":"-79.6583","name":"Mississauga"},{"key":"CA-Mistissini","latitude":"42.11679","longitude":"-100.05023","name":"Mistissini"},{"key":"CA-Moncton","latitude":"46.09454","longitude":"-64.7965","name":"Moncton"},{"key":"CA-Montreal","latitude":"42.11679","longitude":"-100.05023","name":"Montreal"},{"key":"CA-Mount Pearl","latitude":"47.51659","longitude":"-52.78135","name":"Mount Pearl"},{"key":"CA-Musgravetown","latitude":"42.11679","longitude":"-100.05023","name":"Musgravetown"},{"key":"CA-Musquodoboit Harbour","latitude":"42.11679","longitude":"-100.05023","name":"Musquodoboit Harbour"},{"key":"CA-Nanaimo","latitude":"49.16638","longitude":"-123.94003","name":"Nanaimo"},{"key":"CA-Nelson","latitude":"49.49985","longitude":"-117.28553","name":"Nelson"},{"key":"CA-Nepean","latitude":"45.35215","longitude":"-75.73975","name":"Nepean"},{"key":"CA-New Westminster","latitude":"49.20678","longitude":"-122.91092","name":"New Westminster"},{"key":"CA-Newdale","latitude":"42.11679","longitude":"-100.05023","name":"Newdale"},{"key":"CA-Newmarket","latitude":"44.05011","longitude":"-79.46631","name":"Newmarket"},{"key":"CA-Niagara Falls","latitude":"43.10012","longitude":"-79.06627","name":"Niagara Falls"},{"key":"CA-North Bay","latitude":"46.3168","longitude":"-79.46633","name":"North Bay"},{"key":"CA-North Vancouver","latitude":"49.31636","longitude":"-123.06934","name":"North Vancouver"},{"key":"CA-North York","latitude":"43.76681","longitude":"-79.4163","name":"North York"},{"key":"CA-Oakville","latitude":"43.45011","longitude":"-79.68292","name":"Oakville"},{"key":"CA-Okotoks","latitude":"50.72885","longitude":"-113.98281","name":"Okotoks"},{"key":"CA-Orangeville","latitude":"43.9168","longitude":"-80.09967","name":"Orangeville"},{"key":"CA-Orleans","latitude":"42.11679","longitude":"-100.05023","name":"Orleans"},{"key":"CA-Oshawa","latitude":"43.90012","longitude":"-78.84957","name":"Oshawa"},{"key":"CA-Ottawa","latitude":"45.41117","longitude":"-75.69812","name":"Ottawa"},{"key":"CA-Outremont","latitude":"42.11679","longitude":"-100.05023","name":"Outremont"},{"key":"CA-Pelican Narrows","latitude":"42.11679","longitude":"-100.05023","name":"Pelican Narrows"},{"key":"CA-Peterborough","latitude":"44.30012","longitude":"-78.31623","name":"Peterborough"},{"key":"CA-Pickering","latitude":"43.90012","longitude":"-79.13289","name":"Pickering"},{"key":"CA-Pierrefonds","latitude":"42.11679","longitude":"-100.05023","name":"Pierrefonds"},{"key":"CA-Port Perry","latitude":"42.11679","longitude":"-100.05023","name":"Port Perry"},{"key":"CA-Québec","latitude":"46.81228","longitude":"-71.21454","name":"Québec"},{"key":"CA-Raith","latitude":"42.11679","longitude":"-100.05023","name":"Raith"},{"key":"CA-Red Deer","latitude":"52.26682","longitude":"-113.802","name":"Red Deer"},{"key":"CA-Regina","latitude":"50.45008","longitude":"-104.6178","name":"Regina"},{"key":"CA-Repentigny","latitude":"45.74222","longitude":"-73.45008","name":"Repentigny"},{"key":"CA-Richibucto","latitude":"46.68073","longitude":"-64.88044","name":"Richibucto"},{"key":"CA-Richmond","latitude":"45.66677","longitude":"-72.1491","name":"Richmond"},{"key":"CA-Richmond Hill","latitude":"43.87111","longitude":"-79.43725","name":"Richmond Hill"},{"key":"CA-Saint-Augustin-de-Desmaures","latitude":"46.74064","longitude":"-71.45131","name":"Saint-Augustin-de-Desmaures"},{"key":"CA-Saint-Eustache","latitude":"45.565","longitude":"-73.90554","name":"Saint-Eustache"},{"key":"CA-Sault Ste. Marie","latitude":"46.51677","longitude":"-84.33325","name":"Sault Ste. Marie"},{"key":"CA-Scarborough","latitude":"43.77223","longitude":"-79.25666","name":"Scarborough"},{"key":"CA-Sechelt","latitude":"49.47512","longitude":"-123.75903","name":"Sechelt"},{"key":"CA-Sherbrooke","latitude":"45.40008","longitude":"-71.89908","name":"Sherbrooke"},{"key":"CA-Stirling","latitude":"42.11679","longitude":"-100.05023","name":"Stirling"},{"key":"CA-Stratford","latitude":"43.36679","longitude":"-80.94972","name":"Stratford"},{"key":"CA-Strathmore","latitude":"51.05011","longitude":"-113.38523","name":"Strathmore"},{"key":"CA-Surrey","latitude":"49.10635","longitude":"-122.82509","name":"Surrey"},{"key":"CA-Sydney","latitude":"46.1351","longitude":"-60.1831","name":"Sydney"},{"key":"CA-Tamworth","latitude":"42.11679","longitude":"-100.05023","name":"Tamworth"},{"key":"CA-Thornhill","latitude":"42.11679","longitude":"-100.05023","name":"Thornhill"},{"key":"CA-Thunder Bay","latitude":"48.38202","longitude":"-89.25018","name":"Thunder Bay"},{"key":"CA-Timmins","latitude":"48.46686","longitude":"-81.33312","name":"Timmins"},{"key":"CA-Toronto","latitude":"43.70011","longitude":"-79.4163","name":"Toronto"},{"key":"CA-Trenton","latitude":"42.11679","longitude":"-100.05023","name":"Trenton"},{"key":"CA-Trois-Rivières","latitude":"46.34515","longitude":"-72.5477","name":"Trois-Rivières"},{"key":"CA-Truro","latitude":"45.36685","longitude":"-63.26538","name":"Truro"},{"key":"CA-Tyrone","latitude":"42.11679","longitude":"-100.05023","name":"Tyrone"},{"key":"CA-Ucluelet","latitude":"48.94153","longitude":"-125.54635","name":"Ucluelet"},{"key":"CA-Vancouver","latitude":"49.24966","longitude":"-123.11934","name":"Vancouver"},{"key":"CA-Vaudreuil-Dorion","latitude":"45.40008","longitude":"-74.03251","name":"Vaudreuil-Dorion"},{"key":"CA-Vaughan","latitude":"43.8361","longitude":"-79.49827","name":"Vaughan"},{"key":"CA-Vernon","latitude":"50.26729","longitude":"-119.27337","name":"Vernon"},{"key":"CA-Victoria","latitude":"48.43294","longitude":"-123.3693","name":"Victoria"},{"key":"CA-Waterdown","latitude":"42.11679","longitude":"-100.05023","name":"Waterdown"},{"key":"CA-Waterloo","latitude":"45.35008","longitude":"-72.51582","name":"Waterloo"},{"key":"CA-Windsor","latitude":"44.98345","longitude":"-64.13204","name":"Windsor"},{"key":"CA-Winnipeg","latitude":"49.8844","longitude":"-97.14704","name":"Winnipeg"},{"key":"CA-Yarmouth","latitude":"43.83345","longitude":"-66.11557","name":"Yarmouth"},{"key":"CA-Yellowknife","latitude":"62.45411","longitude":"-114.37248","name":"Yellowknife"},{"key":"CA-Yorkton","latitude":"51.2167","longitude":"-102.46766","name":"Yorkton"},{"key":"CL-Concepción","latitude":"-36.82699","longitude":"-73.04977","name":"Concepción"},{"key":"CL-Los Ángeles","latitude":"-37.46973","longitude":"-72.35366","name":"Los Ángeles"},{"key":"CL-Melipilla","latitude":"-33.68909","longitude":"-71.21528","name":"Melipilla"},{"key":"CL-Port Montt","latitude":"-18.19821","longitude":"-109.43241","name":"Port Montt"},{"key":"CL-Santiago","latitude":"-33.45694","longitude":"-70.64827","name":"Santiago"},{"key":"CN-Beijing","latitude":"39.9075","longitude":"116.39723","name":"Beijing"},{"key":"CN-Gotham","latitude":"18.22056","longitude":"100.1","name":"Gotham"},{"key":"CN-Guangzhou","latitude":"23.11667","longitude":"113.25","name":"Guangzhou"},{"key":"CO-Acevedo","latitude":"1.80464","longitude":"-75.89036","name":"Acevedo"},{"key":"CO-Bogotá","latitude":"4.60971","longitude":"-74.08175","name":"Bogotá"},{"key":"CO-Bucaramanga","latitude":"7.12539","longitude":"-73.1198","name":"Bucaramanga"},{"key":"CO-Carepa","latitude":"7.75849","longitude":"-76.65255","name":"Carepa"},{"key":"CO-Fusagasuga","latitude":"-0.19337","longitude":"-67.48588","name":"Fusagasuga"},{"key":"CO-Medellín","latitude":"6.25184","longitude":"-75.56359","name":"Medellín"},{"key":"CR-San José","latitude":"10.95173","longitude":"-85.1361","name":"San José"},{"key":"HR-Zagreb","latitude":"45.81444","longitude":"15.97798","name":"Zagreb"},{"key":"CW-Gotham","latitude":"12.1084","longitude":"-68.93354","name":"Gotham"},{"key":"CW-Willemstad","latitude":"12.1084","longitude":"-68.93354","name":"Willemstad"},{"key":"CY-Gotham","latitude":"34.66865","longitude":"32.38166","name":"Gotham"},{"key":"CZ-Brno","latitude":"49.19522","longitude":"16.60796","name":"Brno"},{"key":"CZ-Gotham","latitude":"48.61598","longitude":"12.17577","name":"Gotham"},{"key":"CZ-Kynsperk nad Ohri","latitude":"48.61598","longitude":"12.17577","name":"Kynsperk nad Ohri"},{"key":"CZ-Luzec nad Vltavou","latitude":"48.61598","longitude":"12.17577","name":"Luzec nad Vltavou"},{"key":"CZ-Neplachovice","latitude":"48.61598","longitude":"12.17577","name":"Neplachovice"},{"key":"CZ-Opava","latitude":"49.93866","longitude":"17.90257","name":"Opava"},{"key":"CZ-Ostrava","latitude":"49.83465","longitude":"18.28204","name":"Ostrava"},{"key":"CZ-Prague","latitude":"50.08804","longitude":"14.42076","name":"Prague"},{"key":"CZ-Prostejov","latitude":"48.61598","longitude":"12.17577","name":"Prostejov"},{"key":"CZ-Roznov pod Radhostem","latitude":"48.61598","longitude":"12.17577","name":"Roznov pod Radhostem"},{"key":"CZ-Rychvald","latitude":"49.86625","longitude":"18.37626","name":"Rychvald"},{"key":"CZ-Smirice","latitude":"48.61598","longitude":"12.17577","name":"Smirice"},{"key":"CZ-Stonava","latitude":"49.81691","longitude":"18.52518","name":"Stonava"},{"key":"DK-Aarhus","latitude":"55.67594","longitude":"12.56553","name":"Aarhus"},{"key":"DK-Abyhoj","latitude":"55.67594","longitude":"12.56553","name":"Abyhoj"},{"key":"DK-Bronshoj","latitude":"55.67594","longitude":"12.56553","name":"Bronshoj"},{"key":"DK-Charlottenlund","latitude":"55.75238","longitude":"12.5745","name":"Charlottenlund"},{"key":"DK-Copenhagen","latitude":"55.67594","longitude":"12.56553","name":"Copenhagen"},{"key":"DK-Dragør","latitude":"55.67594","longitude":"12.56553","name":"Dragør"},{"key":"DK-Esbjerg","latitude":"55.47028","longitude":"8.45187","name":"Esbjerg"},{"key":"DK-Frederiksberg","latitude":"55.67938","longitude":"12.53463","name":"Frederiksberg"},{"key":"DK-Glamsbjerg","latitude":"55.27237","longitude":"10.10483","name":"Glamsbjerg"},{"key":"DK-Gotham","latitude":"55.67594","longitude":"12.56553","name":"Gotham"},{"key":"DK-Klampenborg","latitude":"55.67594","longitude":"12.56553","name":"Klampenborg"},{"key":"DK-Kobenhavn S","latitude":"55.67594","longitude":"12.56553","name":"Kobenhavn S"},{"key":"DK-Kobenhavn SV","latitude":"55.67594","longitude":"12.56553","name":"Kobenhavn SV"},{"key":"DK-Naestved","latitude":"55.22992","longitude":"11.76092","name":"Naestved"},{"key":"DK-Nykobing Falster","latitude":"54.76906","longitude":"11.87425","name":"Nykobing Falster"},{"key":"DK-Odense","latitude":"55.39594","longitude":"10.38831","name":"Odense"},{"key":"DK-Randers","latitude":"56.4607","longitude":"10.03639","name":"Randers"},{"key":"DK-Ringsted","latitude":"55.4426","longitude":"11.79011","name":"Ringsted"},{"key":"DK-Roskilde","latitude":"55.64152","longitude":"12.08035","name":"Roskilde"},{"key":"DK-Silkeborg","latitude":"56.1697","longitude":"9.54508","name":"Silkeborg"},{"key":"DK-Skanderborg","latitude":"56.03434","longitude":"9.93177","name":"Skanderborg"},{"key":"DK-Skovlunde","latitude":"55.67594","longitude":"12.56553","name":"Skovlunde"},{"key":"DK-Stensved","latitude":"55.67594","longitude":"12.56553","name":"Stensved"},{"key":"DK-Taastrup","latitude":"55.65006","longitude":"12.3016","name":"Taastrup"},{"key":"EC-Guayaquil","latitude":"-2.19616","longitude":"-79.88621","name":"Guayaquil"},{"key":"EC-Quito","latitude":"-0.22985","longitude":"-78.52495","name":"Quito"},{"key":"EG-Cairo","latitude":"30.06263","longitude":"31.24967","name":"Cairo"},{"key":"EG-Giza","latitude":"30.00808","longitude":"31.21093","name":"Giza"},{"key":"EG-Gotham","latitude":"22.3457","longitude":"25.51965","name":"Gotham"},{"key":"EG-Madinat an Nasr","latitude":"22.3457","longitude":"25.51965","name":"Madinat an Nasr"},{"key":"EG-New Cairo","latitude":"30.03","longitude":"31.47","name":"New Cairo"},{"key":"EE-Elva","latitude":"58.2225","longitude":"26.42111","name":"Elva"},{"key":"EE-Gotham","latitude":"57.72778","longitude":"22.24646","name":"Gotham"},{"key":"EE-Kehra","latitude":"59.33611","longitude":"25.32111","name":"Kehra"},{"key":"EE-Loksa","latitude":"59.57639","longitude":"25.72139","name":"Loksa"},{"key":"EE-Muraste","latitude":"57.72778","longitude":"22.24646","name":"Muraste"},{"key":"EE-Tallinn","latitude":"59.43696","longitude":"24.75353","name":"Tallinn"},{"key":"ET-Addis Ababa","latitude":"9.02497","longitude":"38.74689","name":"Addis Ababa"},{"key":"ET-Gotham","latitude":"10.06667","longitude":"34.53333","name":"Gotham"},{"key":"FI-Espoo","latitude":"60.2052","longitude":"24.6522","name":"Espoo"},{"key":"FI-Gotham","latitude":"60.16952","longitude":"24.93545","name":"Gotham"},{"key":"FI-Haukivuori","latitude":"62.01753","longitude":"27.21906","name":"Haukivuori"},{"key":"FI-Helsinki","latitude":"60.16952","longitude":"24.93545","name":"Helsinki"},{"key":"FI-Hyvinkaeae","latitude":"60.16952","longitude":"24.93545","name":"Hyvinkaeae"},{"key":"FI-Ilmajoki","latitude":"62.73333","longitude":"22.56667","name":"Ilmajoki"},{"key":"FI-Imatra","latitude":"61.17185","longitude":"28.75242","name":"Imatra"},{"key":"FI-Jakobstad","latitude":"63.67486","longitude":"22.70256","name":"Jakobstad"},{"key":"FI-Järvenpää","latitude":"60.47369","longitude":"25.08992","name":"Järvenpää"},{"key":"FI-Jokela","latitude":"60.16952","longitude":"24.93545","name":"Jokela"},{"key":"FI-Jorvas","latitude":"60.16952","longitude":"24.93545","name":"Jorvas"},{"key":"FI-Jyväskylä","latitude":"62.24147","longitude":"25.72088","name":"Jyväskylä"},{"key":"FI-Kaarina","latitude":"60.40724","longitude":"22.36904","name":"Kaarina"},{"key":"FI-Kangashaekki","latitude":"60.16952","longitude":"24.93545","name":"Kangashaekki"},{"key":"FI-Karis","latitude":"60.07178","longitude":"23.66163","name":"Karis"},{"key":"FI-Kauliranta","latitude":"60.16952","longitude":"24.93545","name":"Kauliranta"},{"key":"FI-Kauttua","latitude":"60.16952","longitude":"24.93545","name":"Kauttua"},{"key":"FI-Kemi","latitude":"65.73641","longitude":"24.56371","name":"Kemi"},{"key":"FI-Kirkkonummi","latitude":"60.12381","longitude":"24.43853","name":"Kirkkonummi"},{"key":"FI-Klaukkala","latitude":"60.16952","longitude":"24.93545","name":"Klaukkala"},{"key":"FI-Lappeenranta","latitude":"61.05871","longitude":"28.18871","name":"Lappeenranta"},{"key":"FI-Lempäälä","latitude":"61.31667","longitude":"23.75","name":"Lempäälä"},{"key":"FI-Lohja","latitude":"60.24859","longitude":"24.06534","name":"Lohja"},{"key":"FI-Loimaa","latitude":"60.84972","longitude":"23.0561","name":"Loimaa"},{"key":"FI-Loviisa","latitude":"60.16952","longitude":"24.93545","name":"Loviisa"},{"key":"FI-Muurame","latitude":"62.13333","longitude":"25.66667","name":"Muurame"},{"key":"FI-Myllyoja","latitude":"60.16952","longitude":"24.93545","name":"Myllyoja"},{"key":"FI-Närpes","latitude":"62.47283","longitude":"21.33707","name":"Närpes"},{"key":"FI-Nurmijärvi","latitude":"60.46407","longitude":"24.8073","name":"Nurmijärvi"},{"key":"FI-Oulu","latitude":"65.01236","longitude":"25.46816","name":"Oulu"},{"key":"FI-Outokumpu","latitude":"62.72685","longitude":"29.01592","name":"Outokumpu"},{"key":"FI-Pargas","latitude":"60.30672","longitude":"22.30097","name":"Pargas"},{"key":"FI-Piikkiö","latitude":"60.16952","longitude":"24.93545","name":"Piikkiö"},{"key":"FI-Pirkkala","latitude":"61.46125","longitude":"23.63228","name":"Pirkkala"},{"key":"FI-Rovaniemi","latitude":"66.5","longitude":"25.71667","name":"Rovaniemi"},{"key":"FI-Taivalkoski","latitude":"65.56667","longitude":"28.25","name":"Taivalkoski"},{"key":"FI-Tampere","latitude":"61.49911","longitude":"23.78712","name":"Tampere"},{"key":"FI-Tervola","latitude":"66.08333","longitude":"24.8","name":"Tervola"},{"key":"FI-Turku","latitude":"60.45148","longitude":"22.26869","name":"Turku"},{"key":"FI-Tuusula","latitude":"60.40368","longitude":"25.02638","name":"Tuusula"},{"key":"FI-Vaasa","latitude":"63.096","longitude":"21.61577","name":"Vaasa"},{"key":"FI-Vantaa","latitude":"60.29414","longitude":"25.04099","name":"Vantaa"},{"key":"FI-Vehniae","latitude":"60.16952","longitude":"24.93545","name":"Vehniae"},{"key":"FR-Acheres-la-Foret","latitude":"48.85341","longitude":"2.3488","name":"Acheres-la-Foret"},{"key":"FR-Aix-en-Provence","latitude":"43.5283","longitude":"5.44973","name":"Aix-en-Provence"},{"key":"FR-Alixan","latitude":"44.97476","longitude":"5.02641","name":"Alixan"},{"key":"FR-Antibes","latitude":"43.56241","longitude":"7.12777","name":"Antibes"},{"key":"FR-Asnieres-sur-Seine","latitude":"48.85341","longitude":"2.3488","name":"Asnieres-sur-Seine"},{"key":"FR-Belfort","latitude":"47.63883","longitude":"6.85419","name":"Belfort"},{"key":"FR-Chamonix","latitude":"48.85341","longitude":"2.3488","name":"Chamonix"},{"key":"FR-Châtillon","latitude":"45.88333","longitude":"4.61667","name":"Châtillon"},{"key":"FR-Élancourt","latitude":"48.78421","longitude":"1.9552","name":"Élancourt"},{"key":"FR-Gotham","latitude":"48.85341","longitude":"2.3488","name":"Gotham"},{"key":"FR-Lyon","latitude":"45.74846","longitude":"4.84671","name":"Lyon"},{"key":"FR-Magny-le-Hongre","latitude":"48.86325","longitude":"2.81546","name":"Magny-le-Hongre"},{"key":"FR-Montpellier","latitude":"43.61092","longitude":"3.87723","name":"Montpellier"},{"key":"FR-Nantes","latitude":"47.21725","longitude":"-1.55336","name":"Nantes"},{"key":"FR-Paris","latitude":"48.85341","longitude":"2.3488","name":"Paris"},{"key":"FR-Rennes","latitude":"48.11198","longitude":"-1.67429","name":"Rennes"},{"key":"FR-Roubaix","latitude":"50.69421","longitude":"3.17456","name":"Roubaix"},{"key":"FR-Saint-Priest-en-Jarez","latitude":"45.47501","longitude":"4.37614","name":"Saint-Priest-en-Jarez"},{"key":"FR-Sartrouville","latitude":"48.9482","longitude":"2.19169","name":"Sartrouville"},{"key":"FR-Thonon-les-Bains","latitude":"46.36667","longitude":"6.48333","name":"Thonon-les-Bains"},{"key":"FR-Velaine-en-Haye","latitude":"48.70383","longitude":"6.02122","name":"Velaine-en-Haye"},{"key":"FR-Versailles","latitude":"48.80359","longitude":"2.13424","name":"Versailles"},{"key":"DE-Aachen","latitude":"50.77664","longitude":"6.08342","name":"Aachen"},{"key":"DE-Ahrensburg","latitude":"53.67515","longitude":"10.22593","name":"Ahrensburg"},{"key":"DE-Altenberge","latitude":"52.05","longitude":"7.46667","name":"Altenberge"},{"key":"DE-Altlandsberg","latitude":"52.56503","longitude":"13.72815","name":"Altlandsberg"},{"key":"DE-Ascheberg","latitude":"54.15027","longitude":"10.34552","name":"Ascheberg"},{"key":"DE-Attendorn","latitude":"51.12645","longitude":"7.90333","name":"Attendorn"},{"key":"DE-Augsburg","latitude":"48.37154","longitude":"10.89851","name":"Augsburg"},{"key":"DE-Bad Aibling","latitude":"47.8638","longitude":"12.01055","name":"Bad Aibling"},{"key":"DE-Bad Homburg","latitude":"52.52437","longitude":"13.41053","name":"Bad Homburg"},{"key":"DE-Bad Nauheim","latitude":"50.36463","longitude":"8.73859","name":"Bad Nauheim"},{"key":"DE-Bayreuth","latitude":"49.94782","longitude":"11.57893","name":"Bayreuth"},{"key":"DE-Bergtheim","latitude":"49.9","longitude":"10.06667","name":"Bergtheim"},{"key":"DE-Berlin","latitude":"52.52437","longitude":"13.41053","name":"Berlin"},{"key":"DE-Blankenfelde","latitude":"52.61863","longitude":"13.39057","name":"Blankenfelde"},{"key":"DE-Bobingen","latitude":"48.27091","longitude":"10.8339","name":"Bobingen"},{"key":"DE-Bonn","latitude":"50.73438","longitude":"7.09549","name":"Bonn"},{"key":"DE-Bottrop","latitude":"51.52392","longitude":"6.9285","name":"Bottrop"},{"key":"DE-Bremerhaven","latitude":"53.55021","longitude":"8.57673","name":"Bremerhaven"},{"key":"DE-Bruchsal","latitude":"49.12426","longitude":"8.59804","name":"Bruchsal"},{"key":"DE-Burglengenfeld","latitude":"49.20379","longitude":"12.04452","name":"Burglengenfeld"},{"key":"DE-Chemnitz","latitude":"50.8357","longitude":"12.92922","name":"Chemnitz"},{"key":"DE-Cologne","latitude":"52.52437","longitude":"13.41053","name":"Cologne"},{"key":"DE-Datteln","latitude":"51.65598","longitude":"7.3453","name":"Datteln"},{"key":"DE-Davensberg","latitude":"52.52437","longitude":"13.41053","name":"Davensberg"},{"key":"DE-Detmold","latitude":"51.93855","longitude":"8.87318","name":"Detmold"},{"key":"DE-Duisburg","latitude":"51.43247","longitude":"6.76516","name":"Duisburg"},{"key":"DE-Emersacker","latitude":"48.48965","longitude":"10.6738","name":"Emersacker"},{"key":"DE-Erding","latitude":"48.30603","longitude":"11.90686","name":"Erding"},{"key":"DE-Erfurt","latitude":"50.9787","longitude":"11.03283","name":"Erfurt"},{"key":"DE-Erlangen","latitude":"49.59099","longitude":"11.00783","name":"Erlangen"},{"key":"DE-Essen","latitude":"52.72258","longitude":"7.9371","name":"Essen"},{"key":"DE-Flensburg","latitude":"54.78431","longitude":"9.43961","name":"Flensburg"},{"key":"DE-Forstinning","latitude":"48.16866","longitude":"11.91244","name":"Forstinning"},{"key":"DE-Frankfurt am Main","latitude":"50.11552","longitude":"8.68417","name":"Frankfurt am Main"},{"key":"DE-Friedrichshafen","latitude":"47.65689","longitude":"9.47554","name":"Friedrichshafen"},{"key":"DE-Fürth","latitude":"49.65083","longitude":"8.78472","name":"Fürth"},{"key":"DE-Garching bei Munchen","latitude":"52.52437","longitude":"13.41053","name":"Garching bei Munchen"},{"key":"DE-Geisenfeld","latitude":"48.68426","longitude":"11.61233","name":"Geisenfeld"},{"key":"DE-Gelsenkirchen","latitude":"51.50508","longitude":"7.09654","name":"Gelsenkirchen"},{"key":"DE-Georgsmarienhuette","latitude":"52.52437","longitude":"13.41053","name":"Georgsmarienhuette"},{"key":"DE-Gotham","latitude":"52.52437","longitude":"13.41053","name":"Gotham"},{"key":"DE-Griesstatt","latitude":"52.52437","longitude":"13.41053","name":"Griesstatt"},{"key":"DE-Grobenzell","latitude":"52.52437","longitude":"13.41053","name":"Grobenzell"},{"key":"DE-Guenzburg","latitude":"52.52437","longitude":"13.41053","name":"Guenzburg"},{"key":"DE-Hagen","latitude":"52.19629","longitude":"7.98041","name":"Hagen"},{"key":"DE-Halle","latitude":"52.06007","longitude":"8.36083","name":"Halle"},{"key":"DE-Hamberge","latitude":"53.83333","longitude":"10.58333","name":"Hamberge"},{"key":"DE-Hamburg","latitude":"53.57532","longitude":"10.01534","name":"Hamburg"},{"key":"DE-Hamm","latitude":"51.68033","longitude":"7.82089","name":"Hamm"},{"key":"DE-Heidelberg","latitude":"49.40768","longitude":"8.69079","name":"Heidelberg"},{"key":"DE-Heilbronn","latitude":"49.13995","longitude":"9.22054","name":"Heilbronn"},{"key":"DE-Heitersheim","latitude":"47.87468","longitude":"7.65721","name":"Heitersheim"},{"key":"DE-Hildesheim","latitude":"52.15077","longitude":"9.95112","name":"Hildesheim"},{"key":"DE-Ingolstadt","latitude":"48.76508","longitude":"11.42372","name":"Ingolstadt"},{"key":"DE-Itzehoe","latitude":"53.92099","longitude":"9.51529","name":"Itzehoe"},{"key":"DE-Kappeln","latitude":"54.66122","longitude":"9.9313","name":"Kappeln"},{"key":"DE-Kiel","latitude":"54.32133","longitude":"10.13489","name":"Kiel"},{"key":"DE-Koblenz","latitude":"50.35357","longitude":"7.57883","name":"Koblenz"},{"key":"DE-Koenigs Wusterhausen","latitude":"52.30141","longitude":"13.633","name":"Koenigs Wusterhausen"},{"key":"DE-Krefeld","latitude":"51.33645","longitude":"6.55381","name":"Krefeld"},{"key":"DE-Landsberg am Lech","latitude":"48.04819","longitude":"10.88282","name":"Landsberg am Lech"},{"key":"DE-Langen","latitude":"53.60554","longitude":"8.59509","name":"Langen"},{"key":"DE-Langenhagen","latitude":"52.44758","longitude":"9.73741","name":"Langenhagen"},{"key":"DE-Leinfelden-Echterdingen","latitude":"48.69406","longitude":"9.16809","name":"Leinfelden-Echterdingen"},{"key":"DE-Leonberg","latitude":"49.94708","longitude":"12.2852","name":"Leonberg"},{"key":"DE-Leuna","latitude":"51.31783","longitude":"12.01589","name":"Leuna"},{"key":"DE-Lippetal","latitude":"52.52437","longitude":"13.41053","name":"Lippetal"},{"key":"DE-Loerrach","latitude":"47.61497","longitude":"7.66457","name":"Loerrach"},{"key":"DE-Lübeck","latitude":"53.86893","longitude":"10.68729","name":"Lübeck"},{"key":"DE-Mannheim","latitude":"49.4891","longitude":"8.46694","name":"Mannheim"},{"key":"DE-Marbach am Neckar","latitude":"48.93964","longitude":"9.25995","name":"Marbach am Neckar"},{"key":"DE-Markkleeberg","latitude":"51.2755","longitude":"12.36906","name":"Markkleeberg"},{"key":"DE-Minden","latitude":"52.28953","longitude":"8.91455","name":"Minden"},{"key":"DE-Mönchengladbach","latitude":"52.52437","longitude":"13.41053","name":"Mönchengladbach"},{"key":"DE-Muencheberg","latitude":"52.52437","longitude":"13.41053","name":"Muencheberg"},{"key":"DE-Munich","latitude":"48.13743","longitude":"11.57549","name":"Munich"},{"key":"DE-Münster","latitude":"51.96236","longitude":"7.62571","name":"Münster"},{"key":"DE-Nandlstadt","latitude":"48.53644","longitude":"11.8073","name":"Nandlstadt"},{"key":"DE-Neuerkirch","latitude":"52.52437","longitude":"13.41053","name":"Neuerkirch"},{"key":"DE-Neuzelle","latitude":"52.09016","longitude":"14.64804","name":"Neuzelle"},{"key":"DE-Niedernhall","latitude":"49.29516","longitude":"9.61604","name":"Niedernhall"},{"key":"DE-Norden","latitude":"53.59552","longitude":"7.20639","name":"Norden"},{"key":"DE-Nuremberg","latitude":"52.52437","longitude":"13.41053","name":"Nuremberg"},{"key":"DE-Oberhausen","latitude":"51.47805","longitude":"6.8625","name":"Oberhausen"},{"key":"DE-Offenbach","latitude":"50.10061","longitude":"8.76647","name":"Offenbach"},{"key":"DE-Offenburg","latitude":"48.47377","longitude":"7.94495","name":"Offenburg"},{"key":"DE-Olfen","latitude":"51.70787","longitude":"7.37893","name":"Olfen"},{"key":"DE-Pfinztal","latitude":"52.52437","longitude":"13.41053","name":"Pfinztal"},{"key":"DE-Protzel","latitude":"52.52437","longitude":"13.41053","name":"Protzel"},{"key":"DE-Radolfzell","latitude":"52.52437","longitude":"13.41053","name":"Radolfzell"},{"key":"DE-Ratingen","latitude":"51.29724","longitude":"6.84929","name":"Ratingen"},{"key":"DE-Rendsburg","latitude":"54.30663","longitude":"9.66313","name":"Rendsburg"},{"key":"DE-Rickling","latitude":"54.01667","longitude":"10.16667","name":"Rickling"},{"key":"DE-Riedstadt","latitude":"49.83411","longitude":"8.49621","name":"Riedstadt"},{"key":"DE-Saarbrücken","latitude":"49.23262","longitude":"7.00982","name":"Saarbrücken"},{"key":"DE-Sauerlach","latitude":"47.97171","longitude":"11.65383","name":"Sauerlach"},{"key":"DE-Schulzendorf","latitude":"52.35818","longitude":"13.59842","name":"Schulzendorf"},{"key":"DE-Schwalbach am Taunus","latitude":"50.15","longitude":"8.53333","name":"Schwalbach am Taunus"},{"key":"DE-Schwerte","latitude":"51.44387","longitude":"7.5675","name":"Schwerte"},{"key":"DE-Schwetzingen","latitude":"49.38217","longitude":"8.5823","name":"Schwetzingen"},{"key":"DE-Sehma","latitude":"52.52437","longitude":"13.41053","name":"Sehma"},{"key":"DE-Seligenstadt","latitude":"50.0432","longitude":"8.97394","name":"Seligenstadt"},{"key":"DE-Selm","latitude":"51.69689","longitude":"7.46809","name":"Selm"},{"key":"DE-Senden","latitude":"51.85645","longitude":"7.48327","name":"Senden"},{"key":"DE-Soest","latitude":"51.57558","longitude":"8.10619","name":"Soest"},{"key":"DE-Solingen","latitude":"51.17343","longitude":"7.0845","name":"Solingen"},{"key":"DE-Stuttgart","latitude":"48.78232","longitude":"9.17702","name":"Stuttgart"},{"key":"DE-Suederluegum","latitude":"52.52437","longitude":"13.41053","name":"Suederluegum"},{"key":"DE-Tamm","latitude":"48.91988","longitude":"9.11556","name":"Tamm"},{"key":"DE-Troisdorf","latitude":"50.80901","longitude":"7.14968","name":"Troisdorf"},{"key":"DE-Unna","latitude":"51.53795","longitude":"7.68969","name":"Unna"},{"key":"DE-Usingen","latitude":"50.33554","longitude":"8.53688","name":"Usingen"},{"key":"DE-Velbert","latitude":"51.33537","longitude":"7.04348","name":"Velbert"},{"key":"DE-Verden an der Aller","latitude":"52.52437","longitude":"13.41053","name":"Verden an der Aller"},{"key":"DE-Walldorf","latitude":"50.61667","longitude":"10.38333","name":"Walldorf"},{"key":"DE-Weilrod","latitude":"52.52437","longitude":"13.41053","name":"Weilrod"},{"key":"DE-Witten","latitude":"51.44362","longitude":"7.35258","name":"Witten"},{"key":"DE-Wittmund","latitude":"53.57674","longitude":"7.77839","name":"Wittmund"},{"key":"DE-Wurzburg","latitude":"52.52437","longitude":"13.41053","name":"Wurzburg"},{"key":"GR-Athens","latitude":"37.97945","longitude":"23.71622","name":"Athens"},{"key":"GD-Gotham","latitude":"12.04903","longitude":"-61.45597","name":"Gotham"},{"key":"HT-Port-au-Prince","latitude":"18.54349","longitude":"-72.33881","name":"Port-au-Prince"},{"key":"JO-Amman","latitude":"31.95522","longitude":"35.94503","name":"Amman"},{"key":"JO-Gotham","latitude":"29.40842","longitude":"34.97918","name":"Gotham"},{"key":"HK-Central","latitude":"22.28299","longitude":"114.15846","name":"Central"},{"key":"HK-Central District","latitude":"22.20453","longitude":"113.86309","name":"Central District"},{"key":"HK-North Point","latitude":"22.20453","longitude":"113.86309","name":"North Point"},{"key":"IS-Reykjavik","latitude":"63.44273","longitude":"-13.68368","name":"Reykjavik"},{"key":"IN-Ahmedabad","latitude":"23.02579","longitude":"72.58727","name":"Ahmedabad"},{"key":"IN-Ankleshwar","latitude":"21.63236","longitude":"72.99001","name":"Ankleshwar"},{"key":"IN-Azamgarh","latitude":"26.06832","longitude":"83.18358","name":"Azamgarh"},{"key":"IN-Bahraich","latitude":"10.01115","longitude":"68.82655","name":"Bahraich"},{"key":"IN-Bengaluru","latitude":"12.97194","longitude":"77.59369","name":"Bengaluru"},{"key":"IN-Bhopal","latitude":"23.25469","longitude":"77.40289","name":"Bhopal"},{"key":"IN-Bilimora","latitude":"20.76957","longitude":"72.96134","name":"Bilimora"},{"key":"IN-Chennai","latitude":"13.08784","longitude":"80.27847","name":"Chennai"},{"key":"IN-Chidambaram","latitude":"11.39933","longitude":"79.69144","name":"Chidambaram"},{"key":"IN-Coimbatore","latitude":"11.00555","longitude":"76.96612","name":"Coimbatore"},{"key":"IN-Delhi","latitude":"28.65195","longitude":"77.23149","name":"Delhi"},{"key":"IN-Eluru","latitude":"10.01115","longitude":"68.82655","name":"Eluru"},{"key":"IN-Ernakulam","latitude":"10.01115","longitude":"68.82655","name":"Ernakulam"},{"key":"IN-Faridabad","latitude":"28.41124","longitude":"77.31316","name":"Faridabad"},{"key":"IN-Ghaziabad","latitude":"10.01115","longitude":"68.82655","name":"Ghaziabad"},{"key":"IN-Gorakhpur","latitude":"29.44768","longitude":"75.67206","name":"Gorakhpur"},{"key":"IN-Gotham","latitude":"10.01115","longitude":"68.82655","name":"Gotham"},{"key":"IN-Greater Noida","latitude":"28.49615","longitude":"77.53601","name":"Greater Noida"},{"key":"IN-Guntur","latitude":"16.29974","longitude":"80.45729","name":"Guntur"},{"key":"IN-Gurgaon","latitude":"28.4601","longitude":"77.02635","name":"Gurgaon"},{"key":"IN-Haryana","latitude":"10.01115","longitude":"68.82655","name":"Haryana"},{"key":"IN-Hyderabad","latitude":"17.38405","longitude":"78.45636","name":"Hyderabad"},{"key":"IN-Jaipur","latitude":"26.91962","longitude":"75.78781","name":"Jaipur"},{"key":"IN-Jalalpur","latitude":"10.01115","longitude":"68.82655","name":"Jalalpur"},{"key":"IN-Kochi","latitude":"10.01115","longitude":"68.82655","name":"Kochi"},{"key":"IN-Kolkata","latitude":"22.56263","longitude":"88.36304","name":"Kolkata"},{"key":"IN-Kumbalam","latitude":"9.9063","longitude":"76.31127","name":"Kumbalam"},{"key":"IN-Lucknow","latitude":"26.83928","longitude":"80.92313","name":"Lucknow"},{"key":"IN-Mathura","latitude":"27.5035","longitude":"77.67215","name":"Mathura"},{"key":"IN-Meerut","latitude":"28.98002","longitude":"77.70636","name":"Meerut"},{"key":"IN-Mumbai","latitude":"19.07283","longitude":"72.88261","name":"Mumbai"},{"key":"IN-Murwara","latitude":"10.01115","longitude":"68.82655","name":"Murwara"},{"key":"IN-Mysore","latitude":"12.29791","longitude":"76.63925","name":"Mysore"},{"key":"IN-Navsari","latitude":"10.01115","longitude":"68.82655","name":"Navsari"},{"key":"IN-New Delhi","latitude":"28.63576","longitude":"77.22445","name":"New Delhi"},{"key":"IN-Noida","latitude":"28.58","longitude":"77.33","name":"Noida"},{"key":"IN-Panchkula","latitude":"30.69461","longitude":"76.8504","name":"Panchkula"},{"key":"IN-Panipat","latitude":"10.01115","longitude":"68.82655","name":"Panipat"},{"key":"IN-Puducherry","latitude":"11.93381","longitude":"79.82979","name":"Puducherry"},{"key":"IN-Pune","latitude":"18.51957","longitude":"73.85535","name":"Pune"},{"key":"IN-Ramanathapuram","latitude":"9.37158","longitude":"78.83077","name":"Ramanathapuram"},{"key":"IN-Ranchi","latitude":"23.34316","longitude":"85.3094","name":"Ranchi"},{"key":"IN-Sahibabad","latitude":"10.01115","longitude":"68.82655","name":"Sahibabad"},{"key":"IN-Salem","latitude":"11.65376","longitude":"78.15538","name":"Salem"},{"key":"IN-Shillong","latitude":"25.56892","longitude":"91.88313","name":"Shillong"},{"key":"IN-Sonipat","latitude":"10.01115","longitude":"68.82655","name":"Sonipat"},{"key":"IN-Surat","latitude":"10.01115","longitude":"68.82655","name":"Surat"},{"key":"IN-Tiruppur","latitude":"11.11541","longitude":"77.35456","name":"Tiruppur"},{"key":"IN-Trivandrum","latitude":"10.01115","longitude":"68.82655","name":"Trivandrum"},{"key":"IN-Vellore","latitude":"12.9184","longitude":"79.13255","name":"Vellore"},{"key":"IN-Vijayawada","latitude":"16.50745","longitude":"80.6466","name":"Vijayawada"},{"key":"IN-Villupuram","latitude":"11.93975","longitude":"79.49244","name":"Villupuram"},{"key":"IN-Visakhapatnam","latitude":"17.68009","longitude":"83.20161","name":"Visakhapatnam"},{"key":"ID-Balikpapan","latitude":"-1.26753","longitude":"116.82887","name":"Balikpapan"},{"key":"ID-Gotham","latitude":"-0.0149","longitude":"100.01266","name":"Gotham"},{"key":"ID-Jakarta","latitude":"-6.21462","longitude":"106.84513","name":"Jakarta"},{"key":"ID-Surabaya","latitude":"-7.24917","longitude":"112.75083","name":"Surabaya"},{"key":"IQ-Baghdad","latitude":"33.34058","longitude":"44.40088","name":"Baghdad"},{"key":"IQ-Gotham","latitude":"29.97421","longitude":"40.28586","name":"Gotham"},{"key":"IE-Baltinglass","latitude":"52.93722","longitude":"-6.70917","name":"Baltinglass"},{"key":"IE-Blanchardstown","latitude":"53.38806","longitude":"-6.37556","name":"Blanchardstown"},{"key":"IE-Blarney","latitude":"51.93333","longitude":"-8.56667","name":"Blarney"},{"key":"IE-Blessington","latitude":"53.17","longitude":"-6.5325","name":"Blessington"},{"key":"IE-Cork","latitude":"51.89797","longitude":"-8.47061","name":"Cork"},{"key":"IE-Dublin","latitude":"53.33306","longitude":"-6.24889","name":"Dublin"},{"key":"IE-Dundalk","latitude":"54","longitude":"-6.41667","name":"Dundalk"},{"key":"IE-Gorey","latitude":"52.67472","longitude":"-6.2925","name":"Gorey"},{"key":"IE-Gotham","latitude":"51.55","longitude":"-10.0191","name":"Gotham"},{"key":"IE-Kilkenny","latitude":"52.65417","longitude":"-7.25222","name":"Kilkenny"},{"key":"IE-Naas","latitude":"53.21583","longitude":"-6.66694","name":"Naas"},{"key":"IE-Navan","latitude":"53.65278","longitude":"-6.68139","name":"Navan"},{"key":"IE-Portumna","latitude":"53.08917","longitude":"-8.21889","name":"Portumna"},{"key":"IE-Shannon","latitude":"52.70389","longitude":"-8.86417","name":"Shannon"},{"key":"IE-Tinahely","latitude":"51.55","longitude":"-10.0191","name":"Tinahely"},{"key":"IE-Wicklow","latitude":"52.975","longitude":"-6.04944","name":"Wicklow"},{"key":"IL-Hadera","latitude":"32.44192","longitude":"34.9039","name":"Hadera"},{"key":"IL-Tel Aviv","latitude":"32.08088","longitude":"34.78057","name":"Tel Aviv"},{"key":"IT-Acireale","latitude":"37.60886","longitude":"15.16577","name":"Acireale"},{"key":"IT-Acquarica del Capo","latitude":"39.90979","longitude":"18.2468","name":"Acquarica del Capo"},{"key":"IT-Affile","latitude":"41.88435","longitude":"13.09853","name":"Affile"},{"key":"IT-Afragola","latitude":"40.92298","longitude":"14.30935","name":"Afragola"},{"key":"IT-Agrigento","latitude":"37.31065","longitude":"13.57661","name":"Agrigento"},{"key":"IT-Alatri","latitude":"41.73187","longitude":"13.3412","name":"Alatri"},{"key":"IT-Alba","latitude":"44.6999","longitude":"8.0347","name":"Alba"},{"key":"IT-Albano Sant'Alessandro","latitude":"45.68762","longitude":"9.76651","name":"Albano Sant'Alessandro"},{"key":"IT-Albignasego","latitude":"45.34705","longitude":"11.86781","name":"Albignasego"},{"key":"IT-Almese","latitude":"41.89193","longitude":"12.51133","name":"Almese"},{"key":"IT-Ancona","latitude":"43.5942","longitude":"13.50337","name":"Ancona"},{"key":"IT-Anguillara","latitude":"41.89193","longitude":"12.51133","name":"Anguillara"},{"key":"IT-Anzio","latitude":"41.45263","longitude":"12.62157","name":"Anzio"},{"key":"IT-Appiano Gentile","latitude":"45.73499","longitude":"8.98103","name":"Appiano Gentile"},{"key":"IT-Arese","latitude":"45.55048","longitude":"9.07741","name":"Arese"},{"key":"IT-Arezzo","latitude":"43.46276","longitude":"11.88068","name":"Arezzo"},{"key":"IT-Ariccia","latitude":"41.72063","longitude":"12.6723","name":"Ariccia"},{"key":"IT-Arizzano","latitude":"45.95738","longitude":"8.58292","name":"Arizzano"},{"key":"IT-Arzergrande","latitude":"45.27278","longitude":"12.0484","name":"Arzergrande"},{"key":"IT-Atripalda","latitude":"40.91867","longitude":"14.82721","name":"Atripalda"},{"key":"IT-Aversa","latitude":"40.97259","longitude":"14.20745","name":"Aversa"},{"key":"IT-Bagnacavallo","latitude":"44.41402","longitude":"11.97813","name":"Bagnacavallo"},